stop_name,mainTrafficType,lat,lon
Adamov,bus,49.8581047,15.4081345
Albertov,tram,50.0672455,14.421648
Ametystová,bus,49.9882,14.3622169
Amforová,bus,50.04185,14.3272839
Anděl,metroB,50.07193,14.4036312
"Andělská Hora,dolní obec",bus,50.2080421,12.9553576
"Andělská Hora,horní obec",bus,50.2042961,12.96137
"Andělská Hora,chaty",bus,50.2071533,12.9447794
"Andělská Hora,rozc.",bus,50.2004471,12.9601526
Antala Staška,bus,50.0416946,14.4443111
Apolinářská,bus,50.07151,14.42648
Arbesovo náměstí,tram,50.07625,14.4042015
Arena Libeň jih,tram,50.1031036,14.4933529
Argentinská,bus,50.1036758,14.4434347
Archeologická,bus,50.0435677,14.3368835
Avia Letňany,bus,50.14186,14.5154915
Baba I,bus,49.9979324,14.4150791
Baba II,bus,49.99959,14.41526
Babice,bus,50.0078621,14.7148714
"Babice,Babičky",bus,50.009388,14.7261581
"Babice,U hřiště",bus,50.00971,14.7192583
"Bácovice,rozc.1.0",bus,49.4824753,15.1807919
"Bačalky,horní",bus,50.38514,15.1523685
"Bačalky,Lično",bus,50.383667,15.1715546
"Bačalky,střed",bus,50.3832054,15.1617842
Bahno,train,49.8656,15.2203875
Bachova,bus,50.0311852,14.5093145
"Bakov n.Jiz.,Buda",bus,50.48371,14.9902973
"Bakov n.Jiz.,Horka",bus,50.474926,14.9659243
"Bakov n.Jiz.,Chudoplesy",bus,50.4574,14.9307127
"Bakov n.Jiz.,Komenského sady",bus,50.4822426,14.9429893
"Bakov n.Jiz.,Malá Bělá,mlýn",bus,50.4862061,14.9262867
"Bakov n.Jiz.,Malá Bělá,U splávku",bus,50.4905968,14.9177961
"Bakov n.Jiz.,nám.",bus,50.4810944,14.93611
"Bakov n.Jiz.,Podhradí",bus,50.46944,14.9197426
"Bakov n.Jiz.,Podhradí,žel.st.",bus,50.4728355,14.9249163
"Bakov n.Jiz.,Pražská",bus,50.4728432,14.9440947
"Bakov n.Jiz.,Trenčín",bus,50.4712143,14.9419708
"Bakov n.Jiz.,Velký Rečkov",bus,50.493084,14.9087591
"Bakov n.Jiz.,Zájezdy",bus,50.47459,14.9782009
"Bakov n.Jiz.,Zvířetice",bus,50.4743652,14.9098539
"Bakov n.Jiz.,žel.zast.",bus,50.4796257,14.9398642
Bakov nad Jizerou,train,50.47211,14.9227324
Bakov nad Jizerou město,train,50.47901,14.9392395
Bakovská,bus,50.13508,14.5498142
Balabenka,tram,50.1047554,14.4828053
Balkán,bus,50.0954,14.4962654
Balkova Lhota,bus,49.45169,14.60643
"Balkova Lhota,Černý les",bus,49.453373,14.5916529
"Balkova Lhota,Knížata rozc.1.0",bus,49.4552231,14.58851
"Balkova Lhota,Výrec",bus,49.4455452,14.6029043
Baně,bus,49.9525757,14.3790865
Barchovice,bus,49.94286,14.9692717
"Barchovice,Hryzely",bus,49.93559,14.9826546
"Barchovice,ObÚ",bus,49.9453773,14.9683037
"Barchovice,Radlice",bus,49.9344368,14.9459133
"Barchovice,Radlice,rozc.",bus,49.94902,14.9535418
Barrandovská,bus,50.03153,14.3958941
Bártlova,bus,50.1190147,14.6328907
Bartoušov zast.,train,50.3549271,15.3107815
Barvy a laky,bus,50.06549,14.5364933
Basilejské náměstí,bus,50.0870628,14.4705544
Bašť,bus,50.2044449,14.4738331
"Bašť,Baštěk",bus,50.20511,14.4623089
"Bašť,Měšická",bus,50.20238,14.4844007
Bašteckého,bus,50.0399132,14.3363791
Baterie,tram,50.092392,14.3698292
"Bavoryně,rozc.",bus,49.90048,13.9611158
Bazar,bus,50.098793,14.671629
Bazén Hloubětín,bus,50.10452,14.5357914
Bazovského,bus,50.06735,14.3079672
Bdín,bus,50.21687,13.8551722
Bečovská,bus,50.04282,14.5870714
Bečváry,bus,49.9568,15.0804949
"Bečváry,Červený Hrádek",bus,49.94068,15.0991087
"Bečváry,Dolní Jelčany",bus,49.9274025,15.0498133
"Bečváry,Hatě",bus,49.91861,15.0561571
"Bečváry,Horní Jelčany",bus,49.9305573,15.0499458
"Bečváry,Poďousy",bus,49.9526672,15.10019
"Bečváry,Poďousy,rozc.",bus,49.9560432,15.1025448
"Bečváry,žel.st.",bus,49.9566078,15.070631
"Bechlín,ObÚ",bus,50.4163933,14.340806
Bechov,train,50.436142,15.0853567
Běchovice,bus,50.08086,14.6176043
Bělá,bus,49.752594,15.2373972
"Bělá p.Bezd.,Atmos",bus,50.5074654,14.790164
"Bělá p.Bezd.,Bezdědice",bus,50.48362,14.6967335
"Bělá p.Bezd.,Bezdědice,odb.",bus,50.48295,14.7049656
"Bělá p.Bezd.,Březinka",bus,50.47837,14.7770643
"Bělá p.Bezd.,Březinka,Valovická",bus,50.473423,14.7545624
"Bělá p.Bezd.,Dřevařská",bus,50.5191727,14.7892866
"Bělá p.Bezd.,Malý Rečkov",bus,50.49549,14.8817434
"Bělá p.Bezd.,Na Výsluní",bus,50.4932747,14.8279982
"Bělá p.Bezd.,Nádražní",bus,50.4893,14.8378239
"Bělá p.Bezd.,nám.",bus,50.5012054,14.8025732
"Bělá p.Bezd.,papírny",bus,50.498436,14.8693533
"Bělá p.Bezd.,Pražská",bus,50.48992,14.8413639
"Bělá p.Bezd.,Šubrtov",bus,50.4989281,14.8634472
"Bělá p.Bezd.,u kapličky",bus,50.5054245,14.79494
"Bělá p.Bezd.,u koníčka",bus,50.500618,14.8107376
"Bělá p.Bezd.,u továrny",bus,50.4955139,14.8211641
"Bělá p.Bezd.,žel.st.",bus,50.4883156,14.8355331
Bělá pod Bezdězem,train,50.488327,14.8360224
Bělá pod Bezdězem město,train,50.4933319,14.7871
Bělá pod Bezdězem zast.,train,50.50015,14.8684378
"Bělá,Tasice",bus,49.76058,15.2520962
Belárie,tram,50.01361,14.4018812
Bělčice,train,49.50444,13.8863316
"Bělčice,nám.",bus,49.5035439,13.8745661
"Bělčice,u knihovny",bus,49.5026741,13.879384
"Bělčice,Záhrobí",bus,49.5087776,13.8490229
"Bělčice,Záhrobí,cihelna",bus,49.5041771,13.85825
"Bělčice,Závišín",bus,49.4852638,13.8680658
"Bělčice,ZD",bus,49.4987946,13.874896
"Bělčice,žel.st.",bus,49.50378,13.88508
Běleč,bus,49.9094467,14.1780491
"Běleč,Bzová,rozc.",bus,49.55556,14.8463831
"Běleč,Elbančice,rozc.1.0",bus,49.5452423,14.8433428
Bělocerkevská,bus,50.0726051,14.4702988
Běloky,bus,50.1323,14.2208681
Bělušice,bus,50.0687065,15.3214951
"Bělušice,Na Dolejšku",bus,50.0640144,15.3263683
"Benátky n.Jiz.,aut.st.",bus,50.28554,14.827858
"Benátky n.Jiz.,Dražice,dvůr",bus,50.3075256,14.8415375
"Benátky n.Jiz.,Dražice,Na Štěpničce",bus,50.30378,14.8406639
"Benátky n.Jiz.,Dražice,závod",bus,50.3083076,14.8490515
"Benátky n.Jiz.,Dražická",bus,50.2935753,14.8296337
"Benátky n.Jiz.,Husovo nám.",bus,50.2918739,14.8264294
"Benátky n.Jiz.,Kbel",bus,50.29175,14.8448658
"Benátky n.Jiz.,Obodř",bus,50.28827,14.8183937
"Benátky n.Jiz.,Ovčín",bus,50.30818,14.8539934
"Benátky n.Jiz.,rozc.Sedlec",bus,50.2933273,14.7907734
"Benátky n.Jiz.,Soumarova",bus,50.288887,14.8239822
"Benátky n.Jiz.,u hřbitova",bus,50.29633,14.8324022
"Benecko,Dolní Štěpanice,host.u Šmídů",bus,50.6375771,15.5170689
"Benecko,Dolní Štěpanice,u mostu",bus,50.6312447,15.51884
Benešov u Prahy,train,49.7795029,14.6828356
"Benešov,Albert",bus,49.7918777,14.6801882
"Benešov,Antuškova",bus,49.7868271,14.6888714
"Benešov,Baba",bus,49.7953758,14.71138
"Benešov,Bedrč",bus,49.8078156,14.717411
"Benešov,Benea",bus,49.77294,14.67998
"Benešov,Benica",bus,49.7767067,14.6757154
"Benešov,Boušice",bus,49.7751274,14.7383165
"Benešov,Buková Lhota",bus,49.8163528,14.6492481
"Benešov,Buková Lhota,rozc.",bus,49.8128,14.6441765
"Benešov,Čechova",bus,49.7856522,14.6895208
"Benešov,Čerčanská",bus,49.7920036,14.6932621
"Benešov,Černoleská",bus,49.77511,14.695199
"Benešov,Černý les",bus,49.76956,14.7004728
"Benešov,Červený Dvůr",bus,49.7851257,14.736043
"Benešov,Dlouhé Pole",bus,49.78215,14.7366257
"Benešov,Dlouhé Pole,rozc.",bus,49.77739,14.7195787
"Benešov,Dukelská",bus,49.78247,14.6836262
"Benešov,Hráského",bus,49.7795753,14.6943083
"Benešov,Jana Nohy",bus,49.7764854,14.68036
"Benešov,Jiráskova Gymnázium",bus,49.7804527,14.6870461
"Benešov,Jiráskova Škola",bus,49.7806244,14.6882105
"Benešov,Jiřího Franka Dětské hřiště",bus,49.7885857,14.6952782
"Benešov,Jiřího Franka U Viaduktu",bus,49.78883,14.6895494
"Benešov,K Tužince",bus,49.79295,14.6896687
"Benešov,Karla Nového",bus,49.7829933,14.6868286
"Benešov,Karlov",bus,49.78458,14.6937151
"Benešov,Kaufland",bus,49.7934952,14.6820192
"Benešov,Ke Stadionu",bus,49.77859,14.6766939
"Benešov,Konopiště",bus,49.7825165,14.6574373
"Benešov,Konopiště,informační centrum",bus,49.7798576,14.6549473
"Benešov,Konopiště,sádky",bus,49.7719231,14.6510706
"Benešov,Konopiště,sv.Anna",bus,49.77313,14.65716
"Benešov,Konopiště,Šiberna",bus,49.77361,14.6690521
"Benešov,Konopišťská",bus,49.7812767,14.6801195
"Benešov,Křižíkova",bus,49.7702446,14.6781788
"Benešov,Lidl",bus,49.7885361,14.68367
"Benešov,Máchova",bus,49.785614,14.6815071
"Benešov,Mariánovice",bus,49.7627144,14.687253
"Benešov,Mariánovice,ČSAD",bus,49.7658844,14.6807661
"Benešov,Mariánovice,rozc.",bus,49.76529,14.6812124
"Benešov,MŠ Úsměv",bus,49.7899,14.6952257
"Benešov,Na Bezděkově",bus,49.78239,14.6914968
"Benešov,Na Chmelnici",bus,49.78101,14.6958866
"Benešov,Nechyba",bus,49.76944,14.7377081
"Benešov,Nemocnice Rudolfa a Stefanie",bus,49.7871475,14.6822243
"Benešov,Neumannova",bus,49.79176,14.683712
"Benešov,Nezvalova",bus,49.79003,14.6909418
"Benešov,Nová Pražská",bus,49.78439,14.6882486
"Benešov,Okrouhlice",bus,49.7908859,14.752984
"Benešov,Okrouhlice,lom",bus,49.7876778,14.7416592
"Benešov,Penny Market",bus,49.78695,14.6942282
"Benešov,Pinko",bus,49.7826424,14.6974792
"Benešov,Pivovar Ferdinand",bus,49.7803535,14.6915941
"Benešov,Plavecký stadion",bus,49.7777367,14.6936817
"Benešov,Pod Hřbitovem",bus,49.7854042,14.69727
"Benešov,Pomněnice",bus,49.79775,14.6734705
"Benešov,Pomněnice,obchodní centrum",bus,49.79587,14.6782751
"Benešov,Pomněnice,zahrádky",bus,49.7920837,14.6718988
"Benešov,Pražská",bus,49.7843361,14.6860542
"Benešov,Purkyňova",bus,49.7845268,14.6792269
"Benešov,Technické služby",bus,49.7876968,14.6930962
"Benešov,Terminál",bus,49.7796173,14.6835537
"Benešov,Tylova",bus,49.7899246,14.6855354
"Benešov,Tyršova",bus,49.78122,14.6827965
"Benešov,U Náhonu",bus,49.78137,14.7015858
"Benešov,Úročnice",bus,49.8059654,14.62853
"Benešov,Úročnice,rozc.Hrusice",bus,49.8045,14.6208858
"Benešov,Vidlákova Lhota",bus,49.8138466,14.6552086
"Benešov,Vidlákova Lhota,rozc.",bus,49.80744,14.64987
"Benešov,Vlašimská",bus,49.7801476,14.7056561
"Benešov,Zapova",bus,49.7823944,14.6943054
Benice,bus,50.01357,14.6049852
Benkova,bus,50.03793,14.4990969
Bernardov,bus,50.0143471,15.3994856
Bernartice,bus,49.6762428,15.1293192
"Bernartice,most",bus,49.6763039,15.1453037
"Bernartice,rozc.",bus,49.67568,15.1234751
"Bernartice,SSÚD",bus,49.6750755,15.1189137
Beroun,train,49.9570923,14.0767078
"Beroun,autobusové nádraží",bus,49.9576263,14.0748854
"Beroun,Bezručova",bus,49.9673729,14.0649548
"Beroun,Brdatka",bus,49.9771347,14.0571537
"Beroun,Brožíkova",bus,49.9684448,14.0807228
"Beroun,Delvita",bus,49.9572449,14.0574121
"Beroun,Eternitka",bus,49.9789162,14.0751324
"Beroun,Hlinky",bus,49.9657249,14.0673532
"Beroun,Hostim",bus,49.9603157,14.1289291
"Beroun,Hostímská",bus,49.9627075,14.085537
"Beroun,Jarov,náves",bus,49.9468575,14.0640144
"Beroun,Jarov,odb.",bus,49.94816,14.0702457
"Beroun,Jungmannova",bus,49.96076,14.0596762
"Beroun,K Dubu",bus,49.9603462,14.0478935
"Beroun,Karla Čapka",bus,49.95638,14.04747
"Beroun,Lidl",bus,49.95226,14.0472307
"Beroun,Lištice",bus,49.96143,14.10378
"Beroun,Na Parkáně",bus,49.96245,14.0752249
"Beroun,Na Ratince",bus,49.95507,14.0791283
"Beroun,Obchodní",bus,49.95743,14.0596848
"Beroun,PAI",bus,49.9726067,14.0762854
"Beroun,Plzeňka",bus,49.96021,14.0645294
"Beroun,Plzeňská brána",bus,49.96261,14.0695229
"Beroun,pod dálnicí",bus,49.9577,14.0706472
"Beroun,Pod Homolkou",bus,49.9592667,14.0543814
"Beroun,Pod Hřbitovem",bus,49.9662247,14.0610609
"Beroun,Preislerova",bus,49.9591064,14.0580635
"Beroun,Prof.Veselého",bus,49.96329,14.0922861
"Beroun,sídliště",bus,49.95526,14.0536594
"Beroun,Školní náměstí",bus,49.9675522,14.0807858
"Beroun,třída Míru",bus,49.95594,14.0493841
"Beroun,U černého koně",bus,49.9655876,14.0724812
"Beroun,u hřbitova",bus,49.9666862,14.0613861
"Beroun,U Slavaše",bus,49.968895,14.079421
"Beroun,U Zelených",bus,49.9638176,14.0622225
"Beroun,V Lužánkách",bus,49.9768639,14.0446262
"Beroun,Velké sídliště",bus,49.9576073,14.0526495
"Beroun,Viničná",bus,49.9651146,14.058239
"Beroun,Vítězslava Hálka I",bus,49.97031,14.0680628
"Beroun,Vítězslava Hálka II",bus,49.96918,14.0627232
"Beroun,Wagnerovo nám.",bus,49.9656258,14.0704947
"Beroun,Zahořanská",bus,49.9626274,14.05412
"Beroun,Zavadilka",bus,49.9536438,14.0717287
"Beroun,Zdejcina",bus,49.97886,14.0328617
Beroun-Závodí,train,49.96642,14.0847216
Bertramka,tram,50.07223,14.3932905
Běrunice,train,50.1859055,15.3413191
"Běrunice,Běruničky",bus,50.19804,15.3344336
"Běrunice,Velké Výkleky",bus,50.18644,15.343049
Beřovice,bus,50.2683144,14.1235533
"Beřovice,Bakov",bus,50.2656479,14.0958042
"Beřovice,horní",bus,50.26581,14.119154
"Běštín,škola",bus,49.80876,14.0208473
"Běštín,transformátor",bus,49.805603,14.0152712
Betáň,bus,50.0071831,14.4796171
Betonárka,bus,50.0367126,14.5747881
Bezdědovice,train,49.4449959,13.8758154
Bezděkov p.Tř.,bus,49.57806,13.8785849
Bezděz,train,50.5160675,14.7293491
Bezno,bus,50.3672829,14.7946739
Bílá Hlína,bus,50.53285,14.9250956
Bílá Hora,tram,50.0755463,14.3227892
Bílá labuť,tram,50.090168,14.4354715
Bílé Podolí,bus,49.9560432,15.4908476
"Bílé Podolí,Lovčice",bus,49.9245224,15.5128222
"Bílé Podolí,Pazderna",bus,49.95995,15.4912148
"Bílé Podolí,Zaříčany",bus,49.9567642,15.4642487
"Bílé Podolí,Zaříčany,rozc.",bus,49.94797,15.4777956
Bílenecké náměstí,bus,50.14964,14.442481
Bílichov,bus,50.26231,13.9138
"Bílichov,u křížku",bus,50.26151,13.9185028
Bílkovice,bus,49.75874,14.8643713
"Bílkovice,mlýn",bus,49.7553329,14.8607512
"Bílkovice,Takonín",bus,49.75991,14.8400183
"Bílkovice,Takonín,rozc.",bus,49.761,14.8406086
"Bílkovice,u kapličky",bus,49.7595139,14.8616085
Bílý Beránek,bus,50.0612,14.3104906
Biskupcova,tram,50.0885429,14.4687958
Bítouchov,bus,50.47546,14.8880949
"Bítouchov,Dalešice",bus,50.4583931,14.9051418
"Bítouchov,Dolánky",bus,50.4871826,14.903615
"Bítouchov,Dolánky,na kopci",bus,50.4864464,14.9088106
"Bítouchov,u rybníka",bus,50.4783134,14.8911905
Blatce,bus,50.5056229,14.5981741
"Blatce,Blatečky",bus,50.49437,14.5914135
"Blatce,Konrádov",bus,50.47793,14.6061144
"Blatce,pod Beškovem",bus,50.51099,14.5787516
"Blatce,rozc.",bus,50.5024033,14.5792236
"Blatce,Tubož",bus,50.4893951,14.5997629
"Blatce,Tubož,rybník",bus,50.4903946,14.5994349
Blatiny,tram,50.0657043,14.3036213
Blatná,train,49.4309273,13.8727407
"Blatná,Hněvkov",bus,49.4006729,13.9046059
"Blatná,mlékárna",bus,49.4175148,13.8852329
"Blatná,Palackého",bus,49.42798,13.8820763
"Blatná,Sádlov",bus,49.42298,13.8655081
"Blatná,Skaličany",bus,49.43733,13.915452
"Blatná,Vorlíčkova",bus,49.42166,13.881999
"Blatná,žel.st.",bus,49.4309845,13.8736134
Blatnická,bus,50.0643,14.2705
Blatno u Jesenice,train,50.0999451,13.3899956
Blatov,bus,50.0785866,14.646183
Blatov sever,bus,50.08279,14.6451569
Blažejovice,bus,49.61966,15.2002239
"Blažejovice,Vítonice,rozc.",bus,49.62244,15.1860943
Blažimská,bus,50.0425835,14.49285
Blevice,bus,50.2099762,14.2365131
Bludov,bus,49.8073425,15.255681
Bludovická,bus,50.135994,14.5113134
Bobnice,bus,50.21894,15.0559864
"Bobnice,Kovansko",bus,50.2071571,15.0551758
"Bobnice,škola",bus,50.21638,15.0564623
Bohdalec,bus,50.06055,14.4695005
Bohdalecká,bus,50.0566177,14.4738007
Bohdaneč,bus,49.778698,15.2227468
"Bohdaneč,Prostřední Ves",bus,49.7907829,15.2148819
"Bohdaneč,prům.areál",bus,49.77762,15.2168932
"Bohdaneč,Sáhy",bus,49.77745,15.2361431
"Bohdaneč,u kapličky",bus,49.784214,15.2167187
Bohemians,tram,50.0662041,14.4541845
Bohnické údolí,bus,50.1357231,14.4120331
Bohostice,bus,49.60154,14.1402378
"Bohostice,Orlická přehrada",bus,49.60762,14.1785717
"Bohostice,sídliště",bus,49.60209,14.1377764
"Bohostice,Zalaby",bus,49.60783,14.1582108
"Bohušovice n.Ohří,Hrdly",bus,50.48367,14.1737061
"Bohušovice n.Ohří,sídliště",bus,50.49606,14.1464567
"Bohušovice n.Ohří,záv.",bus,50.502,14.1460609
"Bohušovice n.Ohří,žel.st.",bus,50.491684,14.149003
Bohutín,bus,49.656044,13.9465656
"Bohutín,bytovky",bus,49.6573219,13.93881
"Bohutín,Havírna",bus,49.6611328,13.9552794
"Bohutín,hřiště",bus,49.661087,13.9337835
"Bohutín,škola",bus,49.65357,13.9421883
"Bohutín,Vysoká Pec",bus,49.6642265,13.9635382
"Bohutín,Vysoká Pec,sídl.",bus,49.6626778,13.9674768
"Bohutín,Vysoká Pec,zahrádky",bus,49.6723557,13.9727306
"Bohutín,zbrojnice",bus,49.6560364,13.9437685
"Bochov,Herstošice",bus,50.14209,13.10066
"Bochov,nám.",bus,50.1503639,13.0454912
"Bochov,SÚS",bus,50.1489067,13.0519876
"Bochov,Údrč,rozc.Skoky",bus,50.1439667,13.0882607
Bojanovice,train,49.8678856,14.3451777
"Bojanovice,Chaty",bus,49.8581238,14.3517485
"Bojanovice,Malá Lečice",bus,49.8215981,14.3366308
"Bojanovice,Malá Lečice,U Hesů",bus,49.82116,14.3329706
"Bojanovice,Rest.",bus,49.85371,14.3524389
"Bojanovice,Senešnice",bus,49.8285179,14.3079605
Bojasova,bus,50.13259,14.4624643
Bojov,train,49.88018,14.3487768
Boletická,bus,50.1327324,14.5137024
Bolevecká,bus,50.0430336,14.5550671
Boloňská,bus,50.047184,14.5557
Boreč,bus,50.406044,14.7338972
"Boreč,cihelna",bus,50.4130173,14.7391682
"Boreč,na křižovatce",bus,50.40917,14.7300224
"Boreč,Žebice",bus,50.413517,14.7134056
Borek,bus,50.22506,14.6527405
Borotice,bus,49.73499,14.2786074
"Borotice,Čelina",bus,49.7324562,14.3256073
"Borotice,Čelina,rozc.",bus,49.7315826,14.3199787
"Borotice,Dražetice",bus,49.74518,14.29585
"Borotice,Dražetice,rozc.",bus,49.736763,14.3037834
"Borotice,Hubenov",bus,49.7266273,14.2909756
"Borotice,Cholín",bus,49.7186241,14.3297091
"Borotice,rozc.",bus,49.73365,14.2943945
"Borotice,Rozc.Smilovice",bus,49.7255058,14.3305578
"Borotice,u lípy",bus,49.73486,14.2832527
Borotín,bus,49.50602,14.6129236
"Borotín,Kamenná Lhota,rozc.1.0",bus,49.51372,14.5925808
"Borotín,Libenice,rozc.0.8",bus,49.5236053,14.5759258
"Borotín,Sychrov,rozc.Boratkov",bus,49.5168877,14.5829144
"Borotín,škola",bus,49.50398,14.6164408
Borovnice,bus,49.64831,15.018672
"Borovnice,rozc.",bus,49.6487427,15.0132637
Borovno,bus,49.6208344,13.6911087
Bořanovice,bus,50.1772346,14.4844608
"Bořanovice,Náves",bus,50.177906,14.4786015
Bořislavka,metroA,50.0985222,14.36455
Boseň,bus,50.5041275,15.0227509
"Boseň,Mužský",bus,50.5221443,15.0418634
"Boseň,pod Valečovem",bus,50.5085678,15.0237646
"Boseň,Zápudov",bus,50.5165253,15.0363312
"Boseň,Zásadka",bus,50.5144,15.0258465
Bošice,train,50.01525,15.0153465
Botanická zahrada,tram,50.0705,14.4196062
Botanická zahrada Malešice,bus,50.0886726,14.5138617
Botanická zahrada Troja,bus,50.11897,14.4099007
Brambory,bus,49.9778481,15.4704084
"Brambory,Koukalka",bus,49.9749527,15.4753294
"Brandýs n.L.-St.Bol.,Aut.st.",bus,50.19782,14.67851
"Brandýs n.L.-St.Bol.,Baumit",bus,50.17602,14.6653538
"Brandýs n.L.-St.Bol.,Brázdimská",bus,50.1879539,14.6492519
"Brandýs n.L.-St.Bol.,Continental",bus,50.17625,14.6585016
"Brandýs n.L.-St.Bol.,Dům peč.služby",bus,50.1913033,14.6558218
"Brandýs n.L.-St.Bol.,Fakulta",bus,50.18423,14.6680641
"Brandýs n.L.-St.Bol.,Kasárna",bus,50.2067032,14.6929483
"Brandýs n.L.-St.Bol.,Královice",bus,50.17924,14.686594
"Brandýs n.L.-St.Bol.,Most",bus,50.190094,14.6678925
"Brandýs n.L.-St.Bol.,Na Panském",bus,50.2037773,14.6886873
"Brandýs n.L.-St.Bol.,Na Radosti",bus,50.1831169,14.6771364
"Brandýs n.L.-St.Bol.,Nádr.",bus,50.18324,14.65666
"Brandýs n.L.-St.Bol.,Nám.",bus,50.18577,14.6603413
"Brandýs n.L.-St.Bol.,Nem.",bus,50.18859,14.6527061
"Brandýs n.L.-St.Bol.,Pekárny",bus,50.17888,14.670064
"Brandýs n.L.-St.Bol.,Popovice",bus,50.177948,14.6249819
"Brandýs n.L.-St.Bol.,Pražská",bus,50.18328,14.65755
"Brandýs n.L.-St.Bol.,Proboštská jezera",bus,50.206955,14.6631823
"Brandýs n.L.-St.Bol.,Rychta",bus,50.18858,14.6565018
"Brandýs n.L.-St.Bol.,Sídl.u nádr.",bus,50.18538,14.6521387
"Brandýs n.L.-St.Bol.,Sídliště",bus,50.2015839,14.6857767
"Brandýs n.L.-St.Bol.,Sokolovská",bus,50.1945763,14.6892748
"Brandýs n.L.-St.Bol.,Škola",bus,50.19689,14.6826124
"Brandýs n.L.-St.Bol.,Školní",bus,50.19698,14.6779795
"Brandýs n.L.-St.Bol.,U Brány",bus,50.1948776,14.6734114
"Brandýs n.L.-St.Bol.,U Hřbitova",bus,50.1999321,14.679697
"Brandýs n.L.-St.Bol.,U Křížku",bus,50.1934624,14.6531868
"Brandýs n.L.-St.Bol.,U Soudu",bus,50.1854057,14.66396
"Brandýs n.L.-St.Bol.,V Olšinkách",bus,50.1861153,14.6485853
"Brandýs n.L.-St.Bol.,Vosí hnízdo",bus,50.1939163,14.700675
"Brandýs n.L.-St.Bol.,Vrábí",bus,50.1778679,14.653801
"Brandýs n.L.-St.Bol.,Výletní",bus,50.1809959,14.6482267
"Brandýs n.L.-St.Bol.,Zahradní Město",bus,50.1746063,14.649457
"Brandýs n.L.-St.Bol.,Žel.st.",bus,50.20967,14.6918945
Brandýs nad Labem,train,50.1834564,14.6552324
Brandýs nad Labem-Zápská,train,50.1836052,14.6649771
Brandýs nad Labem zast.,train,50.1803551,14.67804
Brandýsek,bus,50.18882,14.1608992
"Brandýsek,Olšany",bus,50.18718,14.1541367
"Brandýsek,škola",bus,50.1887169,14.1582193
"Brandýsek,u kina",bus,50.18822,14.1626463
"Brandýsek,žel.st.",bus,50.185257,14.171258
Branické náměstí,bus,50.0347252,14.4140663
Branov,bus,50.01231,13.8436337
"Branov,háj.",bus,50.0030975,13.8544779
"Branov,pod ohradou",bus,50.00912,13.8456745
Branžež,bus,50.507946,15.06248
"Branžež,na křižovatce",bus,50.50503,15.057251
"Branžež,Nová Ves",bus,50.50325,15.0688343
"Branžež,Nová Ves,na kopečku",bus,50.5043259,15.0630159
"Branžež,Zakopaná",bus,50.5117874,15.0772533
Braškov,bus,50.10132,14.100914
"Braškov,Toskánka",bus,50.105587,14.10623
"Braškov,Valdek",bus,50.098156,14.0874023
Bratčice,bus,49.8549232,15.4300156
"Bratčice,křiž.",bus,49.8586121,15.4478779
"Bratčice,rozc.Potěhy",bus,49.85578,15.426899
"Bratčice,u mostu",bus,49.85214,15.4286318
Bratkovice,bus,49.7418442,14.0001907
"Bratkovice,Dominikální Paseky",bus,49.7513657,13.9968042
"Bratkovice,Dominikální Paseky,rozc.",bus,49.7572441,14.0093117
Bratronice,bus,50.0680046,14.0153332
"Bratronice,Dolní Bezděkov",bus,50.08453,14.0351934
"Bratronice,křižovatka",bus,50.06894,14.01919
"Bratronice,Mostecký Mlýn",bus,50.0733337,14.0424862
"Bratronice,odb.Mostecký Mlýn",bus,50.0804329,14.0341148
Bratřínov,bus,49.8426437,14.3403654
Braunova,tram,50.061882,14.4025393
"Brázdim,Nový Brázdim",bus,50.182785,14.5853014
"Brázdim,Rozc.Veliký Brázdim",bus,50.1910324,14.5827179
"Brázdim,Starý Brázdim",bus,50.1823654,14.5894041
Brechtova,bus,50.0355339,14.5172462
Breitcetlova,bus,50.10606,14.5749159
Brňany,bus,50.481472,14.1417656
"Brňany,záv.",bus,50.4878235,14.1460161
"Brniště,Luhov,křiž.",bus,50.7082748,14.7574883
"Brodce,Cukrovarská",bus,50.3230934,14.8661909
"Brodce,Obecní úřad",bus,50.3306541,14.8679447
"Brodce,sokolovna",bus,50.3280029,14.865757
"Brodce,škola",bus,50.3334961,14.8679142
Brodec,bus,50.29346,13.796916
"Brodec,rozc.2.0",bus,50.30177,13.8209906
Brodecká,bus,50.0887642,14.3233891
Brodského,bus,50.03855,14.5032673
"Broumy,Bušohrad",bus,49.9457741,13.81385
"Broumy,Kolna",bus,49.94241,13.9023981
"Broumy,Luh rozc.",bus,49.9643631,13.8538837
"Broumy,radnice",bus,49.9547462,13.8525095
"Broumy,škola",bus,49.9513969,13.8555012
"Broumy,U dvora",bus,49.95937,13.8434238
Brozany n.Ohří,bus,50.4542236,14.1462164
"Brozany n.Ohří,křiž.",bus,50.45823,14.1370993
Brumlovka,bus,50.0480957,14.45506
Bruselská,tram,50.07313,14.4333019
Brusnice,tram,50.0929756,14.3917332
Bryksova,bus,50.1022835,14.5790424
Břeclavská,bus,50.0957832,14.54606
Břetislavka,bus,50.12324,14.389533
Břevnovská,bus,50.0856628,14.3650436
Břevnovský klášter,tram,50.08318,14.35901
Březí,bus,50.014637,14.7000713
"Březí,Podskalí",bus,50.01537,14.6972313
"Březí,U křížku",bus,50.0136681,14.6899462
"Březí,V Jezírku",bus,50.0141029,14.6952915
Březina,bus,50.5452538,15.0325975
Březina nad Jizerou,train,50.5454559,15.0357733
"Březina,Honsob",bus,50.53952,15.019639
"Březina,náves",bus,50.5481033,15.03286
"Březina,podchod",bus,50.54108,15.0361071
"Březina,Žabakor",bus,50.5472679,15.045886
Březiněves,bus,50.1646919,14.4838972
Březiněveská,tram,50.1260262,14.4571247
Březnice,train,49.55846,13.963954
"Březnice,aut.st.",bus,49.5587845,13.9466238
"Březnice,Bor",bus,49.5561829,13.9872885
"Březnice,Borská",bus,49.55598,13.9772844
"Březnice,Dobrá Voda",bus,49.5556221,13.9998751
"Březnice,Dolní Valy",bus,49.55648,13.9536934
"Březnice,nám.",bus,49.5571365,13.9517717
"Březnice,Počapská",bus,49.5533867,13.9594316
"Březnice,Přední Poříčí",bus,49.57542,13.93942
"Březnice,Tochovická",bus,49.5587845,13.9553432
"Březnice,U Blatenky",bus,49.557148,13.9672527
"Březnice,Zadní Poříčí,rozc.",bus,49.5774231,13.939106
"Březnice,žel.st.",bus,49.5581551,13.9624586
"Březnice,žel.st. (u nádraží)",bus,49.558445,13.9634018
Březno,bus,50.40627,15.0057926
Březno u Mladé Boleslavi,train,50.41374,15.0061693
"Březno,Dolánky",bus,50.39371,15.0060225
"Březno,škola",bus,50.40424,15.0091858
Březová,bus,49.9034653,13.8830147
"Březová,háj.",bus,49.910717,13.8760805
"Březová,Pod hrází",bus,49.89718,13.88927
"Březová-Oleško,Březová",bus,49.915,14.41559
"Březová-Oleško,Nová Březová",bus,49.9190559,14.40095
"Březová-Oleško,Oleško",bus,49.9017258,14.4109735
"Březová-Oleško,Olešská",bus,49.9153481,14.4100866
"Březová-Oleško,Školka",bus,49.9114723,14.4138651
"Březová-Oleško,U Topolů",bus,49.90818,14.41312
"Březová-Oleško,Zahradní",bus,49.918045,14.405077
Březovice,bus,50.47107,14.73381
"Březovice,Víska,Kluček",bus,50.47672,14.7227793
Břežany,bus,50.0052948,13.5806036
Břežany I,bus,50.03415,15.0789537
"Břežany I,Chocenice",bus,50.0303841,15.0972748
Břežany II,bus,50.09293,14.8057547
"Břežany II,na Malé Straně",bus,50.0939,14.8026667
"Břežany II,U sokolovny",bus,50.0897636,14.8055325
"Břežany,rozc.",bus,49.999157,13.5687218
Bříství,bus,50.134,14.8416548
"Bříství,Svárov",bus,50.13063,14.8423214
Bříza obec,train,50.36357,14.2185555
Bubenská,bus,50.0981026,14.4365892
Bubovice,bus,49.9703,14.1672564
"Bubovice,Višňovka",bus,49.9746628,14.1633987
Budějovická,metroC,50.04476,14.4475908
Budiměřice,bus,50.1959,15.096673
"Budiměřice,Rašovice",bus,50.2058258,15.1162481
"Budiměřice,Šlotava",bus,50.19872,15.0942564
Budovec,bus,50.13385,14.3838673
"Budyně n.Ohří,Písty",bus,50.423317,14.1593857
"Budyně n.Ohří,Pražská",bus,50.40448,14.1296558
"Budyně n.Ohří,Slánská",bus,50.3981438,14.1232185
"Budyně n.Ohří,žel.st.",bus,50.40599,14.1327686
Bucharova,bus,50.0541649,14.3392105
Buková u Příbramě,bus,49.75473,14.0669546
"Buková u Příbramě,Na Vršku",bus,49.75229,14.0722752
Bukovany,bus,49.8242,14.6183
"Bukovany,Rozc.",bus,49.82422,14.6274443
Bukovina u Přelouče,bus,49.94833,15.565856
Bukovinská,bus,50.14409,14.5767193
Bukovno,train,50.4435921,14.8333511
"Bukovno,Líny",bus,50.4497452,14.81497
"Bukovno,u sokolovny",bus,50.4450264,14.8357716
Bulovka,tram,50.11606,14.4681492
Buš,bus,49.80331,14.3839464
"Buš,Pod Klíčem",bus,49.80007,14.3880224
Buštěhrad,bus,50.1543579,14.1896
"Buštěhrad,Bouchalka",bus,50.1613541,14.2082348
"Buštěhrad,Bouchalka Křiž.",bus,50.1596336,14.2059889
"Buštěhrad,Třinecká",bus,50.15597,14.1639452
"Buštěhrad,U 7 komínů",bus,50.15659,14.1716843
"Buštěhrad,U Kahance",bus,50.1515045,14.1813087
"Buštěhrad,U Kapličky",bus,50.1527977,14.1951056
"Buštěhrad,u školy",bus,50.157505,14.1863575
"Buštěhrad,Závod Dříň",bus,50.1548042,14.1651611
Butovická,bus,50.05155,14.3626308
Býchory,bus,50.0674248,15.2741308
"Býchory,škola",bus,50.06751,15.2759333
Bykáň,train,49.89164,15.2399492
Býkev,bus,50.3471642,14.4168
"Býkev,Jenišovice",bus,50.347065,14.4015331
Bykoš,bus,49.8828773,14.0638332
"Bykoš,odb.Vinařice",bus,49.89477,14.0751352
"Bylany,hlavní silnice",bus,49.95639,15.7347717
Bystřice u Benešova,train,49.74172,14.6664934
"Bystřice,Božkovice,rozc.",bus,49.701046,14.6077232
"Bystřice,Drachkov",bus,49.7136765,14.6198521
"Bystřice,Drachkov,bytovky",bus,49.715065,14.6233158
"Bystřice,Hlivín",bus,49.68647,14.7226467
"Bystřice,Jarkovice",bus,49.76435,14.6535769
"Bystřice,Jinošice",bus,49.7043648,14.6888857
"Bystřice,Jinošice,rozc.Hutě",bus,49.70756,14.6871347
"Bystřice,Jírovice",bus,49.757122,14.6661787
"Bystřice,Jírovice,Kukačka",bus,49.7588234,14.6607265
"Bystřice,Jírovice,rozc.",bus,49.75484,14.672883
"Bystřice,Jiřín",bus,49.6776047,14.6817989
"Bystřice,Knihovka",bus,49.7182,14.655632
"Bystřice,Líšno",bus,49.73287,14.6841488
"Bystřice,Mlýny,Rozc.",bus,49.7391129,14.6079531
"Bystřice,Mokrá Lhota",bus,49.7490959,14.6901731
"Bystřice,Mokrá Lhota,rozc.",bus,49.7478,14.6864319
"Bystřice,nám.",bus,49.7322578,14.667223
"Bystřice,Nesvačily,Nad Rybníkem",bus,49.7320976,14.642992
"Bystřice,Nesvačily,Rest.",bus,49.73445,14.6339445
"Bystřice,Nesvačily,vodárna",bus,49.72785,14.6406527
"Bystřice,Opřetice",bus,49.71365,14.6729889
"Bystřice,Ouběnice",bus,49.6937866,14.68653
"Bystřice,Ouběnice,Dubovka",bus,49.6954346,14.6920595
"Bystřice,Ouběnice,rozc.Jiřín",bus,49.6916275,14.6817713
"Bystřice,Petrovice",bus,49.720314,14.6416273
"Bystřice,Radošovice,rozc.",bus,49.7091637,14.6552744
"Bystřice,rozc.Kobylí",bus,49.6898155,14.6978741
"Bystřice,rozc.Líšno",bus,49.74198,14.6746759
"Bystřice,Strženec",bus,49.68246,14.7056036
"Bystřice,škola",bus,49.7376862,14.6663532
"Bystřice,Tožice",bus,49.7005043,14.6540651
"Bystřice,transformátor",bus,50.3936119,15.2435074
"Bystřice,Tvoršovice",bus,49.749752,14.6314011
"Bystřice,Tvoršovice,Rozc.I",bus,49.7593231,14.6434031
"Bystřice,Tvoršovice,Rozc.II",bus,49.7384567,14.6247721
"Bystřice,Vokov",bus,49.7448578,14.7013512
"Bystřice,žel.st.",bus,49.74066,14.6662083
Byšice,bus,50.310955,14.6063385
"Byšice,pošta",bus,50.3097343,14.6108751
"Byšice,Škola",bus,50.312542,14.6122141
Bzová,bus,49.8978844,13.8619728
"Bzová,Bezovka",bus,49.8969536,13.86798
Cementárna Radotín,bus,49.99382,14.342617
Centrum Zahradní Město,bus,50.05635,14.5065
Cerhenice,bus,50.0753136,15.0769567
"Cerhenice, Za Dráhou",bus,50.08006,15.08276
"Cerhenice,Cerhýnky",bus,50.0676651,15.0530882
"Cerhenice,Náměstí Míru",bus,50.0715141,15.0721378
"Cerhenice,Škola",bus,50.0712662,15.06741
Cerhovice,train,49.8363342,13.8370867
"Cerhovice,hřbitov",bus,49.8473167,13.8361559
"Cerhovice,nám.",bus,49.8500023,13.8350592
"Cerhovice,škola",bus,49.8509674,13.8298664
"Cerhovice,Třenice",bus,49.858242,13.8280153
"Cerhovice,žel.zast.",bus,49.83811,13.8361378
"Cetenov,Hrubý Lesnov",bus,50.64889,14.9278641
"Cetenov,Vystrkov",bus,50.64171,14.92051
Cetyně,bus,49.599823,14.12115
Cikánka,bus,49.9974823,14.3225832
Cílkova,bus,50.01645,14.4434671
Ciolkovského,tram,50.0879974,14.307127
Církvice,train,49.942482,15.32909
"Církvice,Jakub",bus,49.9535942,15.33838
"Církvice,Jakub,u hřiště",bus,49.948143,15.3400784
"Církvice,Netřeb",bus,49.939415,15.3424749
"Církvice,žel.zast.",bus,49.94319,15.3288221
Cítoliby,bus,50.3342857,13.8114042
"Cítoliby,škola",bus,50.33014,13.8123035
Cítov,bus,50.3716736,14.3992271
"Cítov,Beřkovická",bus,50.37161,14.40447
"Cítov,Daminěves",bus,50.3602028,14.3858948
"Cítov,Mělnická",bus,50.3700943,14.406785
"Cítov,Roudnická",bus,50.3738251,14.3897533
Ctěnice,bus,50.1457748,14.5575333
Ctěnický zámek,bus,50.1482735,14.562417
Ctiboř,bus,49.7366524,14.9040375
Ctiměřice,bus,50.3782921,14.9954939
Ctiněves,bus,50.37518,14.30743
"Ctiněves,žel.st.",bus,50.3777542,14.3058243
Cukrovar Čakovice,trolleybus,50.15155,14.5191679
Cukrovar Modřany,bus,49.9986,14.4064217
"Cvikov,aut.st.",bus,50.7749023,14.6344385
"Cvikov,rozc.Rousínov",bus,50.7835464,14.6159239
"Cvikov,sídliště",bus,50.7797356,14.6250372
"Cvrčovice,Čabárna",bus,50.18005,14.1391
"Cvrčovice,ObÚ",bus,50.1791344,14.1566591
"Cvrčovice,U Taušů",bus,50.18217,14.1551628
Čachovice,bus,50.2701263,14.9486895
"Čachovice,Struhy",bus,50.287056,14.9343185
"Čachovice,Struhy,Hostinec",bus,50.28419,14.9398232
"Čachovice,žel.st.",bus,50.27252,14.9478769
Čakov,bus,49.82573,14.8363066
"Čakov,rozc.Zálesí",bus,49.8097725,14.8205242
"Čakov,Tatouňovice",bus,49.8203545,14.8361616
"Čakov,Vlkov",bus,49.81321,14.8322811
Čakovice,trolleybus,50.1518059,14.5288191
Čakovická,bus,50.11902,14.51895
Čakovický zámek,trolleybus,50.15167,14.5216837
Čakovičky,bus,50.23186,14.5297976
Čáslav,train,49.91533,15.3946838
"Čáslav,aut.st.",bus,49.9116135,15.3963089
"Čáslav,B.Smetany",bus,49.90583,15.3975773
"Čáslav,Balkán",bus,49.9172478,15.388978
"Čáslav,Budín",bus,49.9208679,15.3832874
"Čáslav,Filipov",bus,49.9000053,15.4224987
"Čáslav,Filipov,VÚ",bus,49.9021835,15.4145708
"Čáslav,Hudební škola",bus,49.906723,15.3966608
"Čáslav,Chrudimská",bus,49.9126625,15.4042873
"Čáslav,Kalabousek",bus,49.9281464,15.3652658
"Čáslav,nem.",bus,49.9046822,15.3996687
"Čáslav,obchodní centrum",bus,49.90264,15.4046564
"Čáslav,Pražská",bus,49.9195747,15.3842
"Čáslav,U Čápa",bus,49.9064674,15.385973
"Čáslav,u hřbitova",bus,49.9229927,15.3860073
"Čáslav,u mostu",bus,49.91188,15.3872547
"Čáslav,Vrcha",bus,49.93312,15.4212322
"Čáslav,Za Rybníkem",bus,49.91041,15.386591
"Čáslav,Zahradní",bus,49.9042969,15.389637
"Čáslav,zem.škola",bus,49.9034081,15.3926706
"Čáslav,Žacká",bus,49.90877,15.3872108
"Čáslav,žel.st.",bus,49.9144478,15.394886
Čáslavsko,bus,49.59223,15.0044775
Čečelice,bus,50.29433,14.6172733
Čechova čtvrť,tram,50.00224,14.4096966
Čechova škola,bus,50.117382,14.4242983
Čechovo náměstí,tram,50.0680656,14.4594707
Čechtice,bus,49.62337,15.0487795
"Čechtice,Černičí",bus,49.6198921,15.0751619
"Čechtice,Dobříkovice",bus,49.6258125,14.9723539
"Čechtice,Jeníkov",bus,49.62699,14.9997263
"Čechtice,Malá Paseka",bus,49.6051445,15.058856
"Čechtice,Nakvasovice",bus,49.6238174,14.9888105
"Čechtice,Otročice",bus,49.6427269,15.0361481
"Čechtice,Otročice,rozc.",bus,49.6373825,15.0251684
"Čechtice,prodejna",bus,49.6248,15.0479174
"Čechtice,Staré Práchňany",bus,49.60236,15.0178328
"Čechtice,škola",bus,49.624752,15.045496
Čechtická,bus,50.0207176,14.4450006
Čechův most,tram,50.0940475,14.41689
Čejkovice,bus,49.79232,15.3495855
Čelákovice,train,50.1579781,14.754262
Čelákovice zast.,train,50.1598,14.7354794
"Čelákovice,Jiřinská",bus,50.1628571,14.75747
"Čelákovice,Nám.",bus,50.16301,14.74953
"Čelákovice,Rozc.Sedlčánky",bus,50.1625824,14.7866993
"Čelákovice,Rumunská",bus,50.1608353,14.7445059
"Čelákovice,Sedlčánky",bus,50.1679649,14.7872181
"Čelákovice,Toušeňská",bus,50.15596,14.7441521
"Čelákovice,U Hájku",bus,50.1643,14.7664824
"Čelákovice,V Prokopě",bus,50.15994,14.7356567
"Čelákovice,Záluží",bus,50.14402,14.745326
"Čelákovice,Záluží,Cihelna",bus,50.15008,14.7483912
"Čelákovice,Žel.st.",bus,50.1577072,14.75334
Čelákovice-Jiřina,train,50.1675568,14.7653732
Čenkov,bus,49.7727737,14.0051632
"Čenkov,U Kříže",bus,49.7768059,13.9995279
"Čenkov,Záv.",bus,49.77578,14.0066013
Čerčany,train,49.8508,14.7017536
"Čerčany,ke hřbitovu",bus,49.84742,14.7102242
"Čerčany,Vysoká Lhota",bus,49.8584938,14.6995382
"Čerčany,žel.st.",bus,49.8509254,14.7024469
Černé Voděrady,bus,49.94031,14.80708
"Černé Voděrady,Chaloupky",bus,49.94487,14.8094711
"Černé Voděrady,ObÚ",bus,49.94204,14.8071814
Černická,bus,50.08015,14.5059843
Černíky,bus,50.1023445,14.8196535
Černínova,bus,50.088974,14.4622927
Černíny,train,49.8409348,15.2162046
"Černíny,Bahno",bus,49.87085,15.2342653
"Černíny,Zdeslavice",bus,49.8261681,15.23362
Černolice,bus,49.90935,14.2989817
"Černolice,Nový Dvůr",bus,49.91307,14.30779
Černošice,train,49.95962,14.3234329
"Černošice,Centrum Vráž",bus,49.9495,14.3137608
"Černošice,Husova",bus,49.9496574,14.3140936
"Černošice,Javorová",bus,49.9446564,14.3125343
"Černošice,Karlštejnská",bus,49.9563828,14.311554
"Černošice,Kladenská",bus,49.9538,14.3195944
"Černošice,Komenského",bus,49.96102,14.32334
"Černošice,Masopustní náměstí",bus,49.941555,14.3293657
"Černošice,Mokropsy žel.zast.",bus,49.9465179,14.3301172
"Černošice,Na Ladech",bus,49.9426727,14.3176355
"Černošice,Škola",bus,49.946907,14.3265877
"Černošice,U Kamenného mostu",bus,49.940567,14.326334
"Černošice,U Transformátoru",bus,49.94737,14.30791
"Černošice,U Vodárny",bus,49.9670372,14.329895
"Černošice,Žel.zast.",bus,49.9590645,14.3220253
Černošice-Mokropsy,train,49.946228,14.3303385
Černouček,bus,50.3609657,14.3072166
Černuc,bus,50.3010864,14.2027454
"Černuc,Bratkovice",bus,50.2834473,14.1909037
"Černuc,Miletice",bus,50.3040924,14.2339544
"Černuc,Nabdín",bus,50.2806473,14.2016134
"Černuc,škola",bus,50.30075,14.2074108
"Černuc,u křížku",bus,50.2845345,14.203723
Černý kůň,tram,50.02308,14.4037323
Černý Most,metroB,50.1091156,14.5771332
Černý vrch,bus,50.0682831,14.3872833
Čertousy,bus,50.1223946,14.6351891
Čertův vršek,bus,50.1171341,14.4739847
Červená Řečice,bus,49.5115051,15.178462
"Červená Řečice,Zmišovice,rozc.",bus,49.49681,15.1793413
Červeňanského,bus,50.03919,14.335083
Červené Janovice,bus,49.8343658,15.252594
"Červené Janovice,Katlov",bus,49.8307953,15.2491693
"Červené Janovice,Lány",bus,49.84862,15.2874079
"Červené Janovice,Plhov",bus,49.8259659,15.2842827
"Červené Janovice,škola",bus,49.8357773,15.2594013
"Červené Janovice,u hřiště",bus,49.8320236,15.2576466
"Červené Janovice,Vilémovice",bus,49.8451271,15.2706509
"Červené Janovice,Vilémovice,rozc.",bus,49.8432,15.2701082
"Červené Janovice,Zhoř",bus,49.8162346,15.2639236
Červené Pečky,train,49.9878273,15.20655
"Červené Pečky,Amálka",bus,49.9804535,15.2081966
"Červené Pečky,Bohouňovice I",bus,49.9757156,15.1808434
"Červené Pečky,Bojiště",bus,49.9719276,15.20172
"Červené Pečky,Bořetice",bus,49.96925,15.1699352
"Červené Pečky,Bořetice,U Rybníka",bus,49.96673,15.1678152
"Červené Pečky,Čertovka",bus,49.9794159,15.2343559
"Červené Pečky,Dobešovice",bus,49.98301,15.1988134
"Červené Pečky,Dolany",bus,49.98031,15.2296476
"Červené Pečky,Horní",bus,49.97502,15.20557
"Červené Pečky,nám.",bus,49.9790726,15.2107849
"Červené Pečky,Opatovice",bus,49.9669724,15.19448
"Červené Pečky,škola",bus,49.9797173,15.2135077
"Červené Pečky,žel.st.",bus,49.98861,15.2074556
Červený Újezd,bus,49.5559,14.6040268
Červený Újezd u Votic zast.,train,49.5608521,14.6134815
"Červený Újezd,Deboreč",bus,49.5755844,14.6080294
"Červený Újezd,Horní Borek",bus,49.57387,14.6329536
"Červený Újezd,Milhostice",bus,49.5487,14.6115675
"Červený Újezd,Nové Dvory",bus,49.56513,14.604866
"Červený Újezd,rozc.Řikov",bus,49.5726051,14.6047325
"Červený Újezd,Zátiší",bus,49.5733566,14.613718
Červený Vrch,tram,50.09684,14.352972
"Česká Lípa,aut.nádr.",bus,50.67752,14.5356817
"Česká Lípa,Borská",bus,50.6944351,14.5414772
"Česká Lípa,Častolovice,rozc.",bus,50.7169647,14.5454483
"Česká Lípa,Lada",bus,50.7091675,14.5445232
"Česká Lípa,U Jezu",bus,50.68304,14.5394268
Českobrodská,bus,50.0918121,14.5329638
Českolipská,bus,50.1265373,14.5015936
Českomalínská,bus,50.10479,14.4035692
Českomoravská,metroB,50.10593,14.4934387
Český Brod,train,50.076683,14.8662663
"Český Brod,Jana Kouly",bus,50.07323,14.863471
"Český Brod,Jungmannova",bus,50.0722427,14.8582554
"Český Brod,Kollárova",bus,50.0749359,14.8578024
"Český Brod,Liblice,Bylanská",bus,50.071,14.8846264
"Český Brod,Liblice,Obec",bus,50.0745049,14.8831682
"Český Brod,Liblice,SEŠ",bus,50.0759773,14.8801041
"Český Brod,Liblice,Vodárna",bus,50.07841,14.8765259
"Český Brod,Muzeum",bus,50.0745964,14.8540945
"Český Brod,Na Bulánce",bus,50.071846,14.856041
"Český Brod,Nem.",bus,50.073307,14.85277
"Český Brod,Sídliště",bus,50.0699921,14.8527613
"Český Brod,Štolmíř",bus,50.0859642,14.84216
"Český Brod,U Vodárny",bus,50.09091,14.8648367
"Český Brod,Zahrady",bus,50.0578423,14.8468313
"Český Brod,Zborovská",bus,50.0775,14.86368
"Český Brod,Žel.st.",bus,50.07613,14.8664093
"Český Dub,Bohumileč",bus,50.6380272,14.9838457
"Český Dub,host.",bus,50.6581535,14.993597
"Český Dub,Kněžičky,rozc.0.5",bus,50.6594238,14.9829855
"Český Dub,Libíč",bus,50.6281471,14.9858294
"Český Dub,Loukovičky",bus,50.6458168,14.9922018
"Český Dub,nám.",bus,50.66023,14.9964228
"Český Dub,Severka",bus,50.65603,14.9915142
Český Šternberk,train,49.8136826,14.93591
Český Šternberk zast.,train,49.8086357,14.9297028
"Český Šternberk,Čejkovice",bus,49.80338,14.9376745
Čestín,bus,49.80719,15.1037626
"Čestín,Čábelice",bus,49.781868,15.0476112
"Čestín,Čenovice",bus,49.7948227,15.1140766
"Čestín,Čenovice,rozc.",bus,49.79898,15.1080723
"Čestín,Čentice",bus,49.812,15.0870495
"Čestín,Kamenná Lhota",bus,49.833992,15.1213322
"Čestín,Kasanice,rozc.",bus,49.80787,15.0818605
"Čestín,Kněž",bus,49.7894135,15.0906334
"Čestín,Kněž,rozc.",bus,49.7966881,15.1005154
"Čestín,Milotice",bus,49.8139877,15.0959806
"Čestín,Morány",bus,49.8157654,15.1191206
"Čestín,Polipsy",bus,49.787262,15.0597792
"Čestín,u mlýna",bus,49.80796,15.0969534
Čestlice,bus,50.0018654,14.5836678
"Čestlice,aquapark",bus,50.0076256,14.5733595
"Čestlice,Lipová",bus,49.99694,14.5849409
"Čestlice,nákupní zóna",bus,50.0046539,14.5744429
"Čestlice,Rehau",bus,49.9968567,14.5820694
"Čestlice,V Oblouku",bus,50.00616,14.5717077
"Čestlice,zábavní park",bus,50.00013,14.5774088
"Číčovice,Malé Číčovice",bus,50.1568,14.2493248
"Číčovice,Velké Číčovice",bus,50.1543541,14.2409534
"Číhošť,Hlohov",bus,49.7628632,15.3057518
Čilec,bus,50.21926,14.982358
Čím,bus,49.7798157,14.3767252
"Čím,Hrdlička",bus,49.7830238,14.38539
Čimelice,train,49.47034,14.0766783
"Čimelice,nám.",bus,49.46486,14.0686445
Čimice,bus,50.1407166,14.4308338
Čimický háj,bus,50.1275673,14.4353666
Činěves,bus,50.22688,15.2168522
"Činěves,u kovárny",bus,50.23065,15.2138567
Čínská,bus,50.10895,14.3946676
Čisovice,bus,49.86358,14.31521
"Čisovice,Bojov",bus,49.87162,14.34838
"Čisovice,Bojov,Višňovka",bus,49.86686,14.33926
"Čisovice,Bojov,Žel.st.",bus,49.87978,14.34852
"Čisovice,Pod Horou",bus,49.8635,14.3116
"Čisovice,U Školy",bus,49.8643761,14.3210335
"Čisovice,Žel.st.",bus,49.85771,14.3191156
Čistá,train,50.0329247,13.56862
"Čistá,Čistecký důl",bus,50.4838753,14.828474
"Čistá,hlavní silnice",bus,50.47447,14.86003
"Čistá,hřiště",bus,50.47523,14.8411646
"Čistá,Kůzová",bus,50.0383453,13.5286436
"Čistá,Lhota",bus,50.0478745,13.4876823
"Čistá,Nová Ves",bus,50.04381,13.5208578
"Čistá,Nová Ves,Zelený Důl",bus,50.0399551,13.4987669
"Čistá,Stránka",bus,50.473896,14.8513823
"Čistá,škola",bus,50.4729538,14.8442087
"Čistá,zahradnictví",bus,50.023716,13.5885372
"Čistá,Zdeslav",bus,50.0450935,13.5610847
"Čistá,Zdeslav,statek",bus,50.0439873,13.5386133
"Čistá,žel.st.",bus,50.032753,13.5702639
Čížov,train,49.752,15.0486441
Čtyřkoly,train,49.8686676,14.7143688
Ďáblice,bus,50.14851,14.4872046
Ďáblický hřbitov,bus,50.1373978,14.4787693
Daleké Dušníky,bus,49.7276039,14.1825981
"Daleké Dušníky,Druhlice",bus,49.7262421,14.1684284
"Dalovice,křiž.",bus,50.42407,14.8783474
Darwinova,bus,50.0109329,14.409934
Davle,train,49.8877525,14.3988876
"Davle,Na Javorce",bus,49.896843,14.3997192
"Davle,Obec",bus,49.8900146,14.3986969
"Davle,Pod Račany",bus,49.8913422,14.3898869
"Davle,Portus",bus,49.8757324,14.3908644
"Davle,Sázava",bus,49.8856,14.3970718
"Davle,Sázava,Třešňovka",bus,49.88491,14.4025021
"Davle,Sloup",bus,49.8884048,14.3745356
"Davle,Sloup,U Jeřábu",bus,49.890667,14.37674
"Davle,U Kiliána",bus,49.8798027,14.38903
"Davle,U Pomníku",bus,49.8923645,14.4007187
Dědina,tram,50.08933,14.3019047
Dědinova,bus,50.03375,14.4836836
Dehtínská,bus,49.97665,14.3447866
Dejvická,metroA,50.10033,14.3914833
Děkanka,bus,50.0536,14.4308672
Děkanovice,bus,49.6183777,15.1510849
Děkov,bus,50.1724434,13.5557041
"Děkov,jednota",bus,50.171875,13.5540571
"Děkov,Nová Ves",bus,50.1723137,13.5685263
"Děkov,Nová Ves,rozc.",bus,50.16089,13.5724468
"Děkov,Vlkov",bus,50.18452,13.5660267
Dělnická,tram,50.1036568,14.4498167
Dělostřelecká,bus,50.0963,14.3874578
Delta,bus,50.0471878,14.4574938
Depo Hostivař,metroA,50.0765,14.5166826
Depo Kačerov,bus,50.0456772,14.4703465
Depo Zličín,bus,50.0533257,14.2775774
Dercsenyiho,bus,50.092247,14.5799084
"Desná,centrum",bus,50.7563,15.3140354
"Desná,odb.",bus,50.7653427,15.3356419
"Desná,Sklář",bus,50.7623444,15.32172
Deštnice,bus,50.2314835,13.609477
"Deštnice,Nová Hospoda rozc.",bus,50.2170067,13.588191
"Deštnice,rozc.1.0",bus,50.2346458,13.5885391
"Deštnice,rozc.Sádek",bus,50.2434578,13.57686
"Dětenice,Brodek",bus,50.355278,15.166379
"Dětenice,náves",bus,50.3677063,15.1701345
"Dětenice,odb.Brodek",bus,50.36682,15.1691771
"Dětenice,Osenice",bus,50.37097,15.1574087
"Dětenice,sokolovna",bus,50.36822,15.1704941
Dětská nemocnice Karlov,bus,50.07078,14.4285545
Diskařská,bus,50.07909,14.3827591
Divadlo Gong,tram,50.1067924,14.4885988
Divadlo Horní Počernice,bus,50.1168175,14.6217508
Divadlo Na Fidlovačce,tram,50.06483,14.4362841
Divadlo pod Palmovkou,tram,50.10566,14.4727526
Dívčí hrady,bus,50.05585,14.3991508
"Divišov,Benešovská",bus,49.7902336,14.8720045
"Divišov,Brtnice",bus,49.7988,14.9244442
"Divišov,Dolany",bus,49.7888565,14.9312048
"Divišov,koupaliště",bus,49.7845039,14.8774166
"Divišov,Lbosín,rozc.",bus,49.7871323,14.8374834
"Divišov,Měchnov,rozc.",bus,49.80056,14.8978186
"Divišov,nám.",bus,49.78823,14.8762083
"Divišov,Radonice",bus,49.7851257,14.9408016
"Divišov,rozc.Dalovy",bus,49.7877846,14.8520107
"Divišov,rozc.Křešice",bus,49.807106,14.8623943
"Divišov,Šternov",bus,49.80403,14.9097195
"Divišov,Vrcha",bus,49.793808,14.882884
"Divišov,Všechlapská",bus,49.7899132,14.8795195
"Divišov,Zdebuzeves",bus,49.7773476,14.9575882
Divoká Šárka,tram,50.0926,14.32361
Dlouhá Lhota,bus,49.7214165,14.11842
"Dlouhá Lhota,U Křížku",bus,49.7242737,14.1269732
"Dlouhá Lhota,U Lochmanů",bus,50.41925,15.0613213
"Dlouhá Lhota,U Zachařů",bus,50.419735,15.0522814
"Dlouhá Lhota,žel.zast.",bus,50.42066,15.0389919
Dlouhá třída,tram,50.09167,14.42754
Dlouhopolsko,bus,50.17521,15.3054924
Do Čertous,bus,50.12269,14.6109552
Do Chuchle,bus,50.0175858,14.3570614
Do Koutů,bus,49.99194,14.4165
Do Lipan,bus,50.00842,14.6265306
Do Rybníčků,bus,50.14965,14.4452
Dobeška,bus,50.04215,14.416317
Dobrá Voda u Březnice,train,49.55614,13.99946
Dobratická,trolleybus,50.1303177,14.5086508
Dobročovice,bus,50.05618,14.6989908
Dobročovická,bus,50.07341,14.5051069
Dobronická,bus,50.0109825,14.471467
Dobrovice,train,50.3550949,14.940217
"Dobrovice,aut.st.",bus,50.36863,14.9637012
"Dobrovice,Bojetice",bus,50.3790627,14.9678373
"Dobrovice,Holé Vrchy",bus,50.3911,14.9790554
"Dobrovice,Holé Vrchy,Ctiměřická",bus,50.3848953,14.9897642
"Dobrovice,Chloumek",bus,50.3831978,14.9302988
"Dobrovice,Libichov",bus,50.35155,14.9167356
"Dobrovice,Libichov,hl.sil.",bus,50.3521652,14.9132156
"Dobrovice,Sýčina",bus,50.3666954,14.9362707
"Dobrovice,Sýčina,Nádražní",bus,50.3667831,14.9376335
"Dobrovice,Švermovy sady",bus,50.36884,14.9569387
"Dobrovice,Týnec",bus,50.37464,14.9788074
"Dobrovice,Úherce",bus,50.3691559,14.9879274
"Dobrovice,v hájku",bus,50.37458,14.9692154
"Dobrovice,žel.st.",bus,50.35587,14.9396315
Dobrovítov,bus,49.78724,15.3280745
"Dobrovítov,Dědice",bus,49.78378,15.3036728
"Dobrovítov,Dědice,rozc.",bus,49.77747,15.3039722
Dobrovíz,bus,50.1144867,14.21688
"Dobrovíz,Komerční zóna",bus,50.1073227,14.2134914
"Dobrovíz,Obecní úřad",bus,50.11356,14.2183733
Dobrovíz-Amazon,train,50.10747,14.2140474
"Dobřejovice,Čestlická",bus,49.98384,14.5855551
"Dobřejovice,Jesenická",bus,49.98062,14.572753
"Dobřejovice,Košumberk",bus,49.9793358,14.5840435
"Dobřejovice,Na návsi",bus,49.9820023,14.5795889
Dobřeň,bus,50.47848,14.5576544
"Dobřeň,Jestřebice",bus,50.4624939,14.5710068
"Dobřeň,Jestřebice,Malá Jestřebice",bus,50.4567337,14.5684614
"Dobřeň,na Špičáku",bus,50.4717941,14.567852
"Dobřeň,Střezivojice",bus,50.49093,14.55701
Dobříč,bus,50.02095,14.2576361
Dobříčkov,train,49.75262,14.7616148
Dobřichov,bus,50.0779343,15.0322142
"Dobřichov,U Pomníku",bus,50.0790825,15.0318661
Dobřichovice,train,49.927475,14.2877693
"Dobřichovice,Nádraží",bus,49.92714,14.28823
"Dobřichovice,Pod Vinicí",bus,49.93115,14.27588
"Dobřichovice,Pošta",bus,49.92696,14.27465
"Dobřichovice,Randova",bus,49.9358,14.2833605
"Dobřichovice,rozc.Karlík",bus,49.92815,14.27178
Dobříň,train,50.4372444,14.2963963
Dobříš,train,49.79,14.1831226
"Dobříš,Kodetka",bus,49.79901,14.1958237
"Dobříš,lom",bus,49.77167,14.1666107
"Dobříš,Na Hradci",bus,49.8115425,14.1010838
"Dobříš,nám.",bus,49.7814369,14.1704035
"Dobříš,Pod Hradcem",bus,49.8010864,14.12367
"Dobříš,Průmyslová zóna",bus,49.79424,14.1896334
"Dobříš,Sanatorium",bus,49.78796,14.1514168
"Dobříš,Trnová,Dvůr",bus,49.79407,14.1348934
"Dobříš,U Pivovaru",bus,49.7878838,14.1784067
"Dobříš,U Slovanky",bus,49.7864571,14.1659126
"Dobříš,Žel.st.",bus,49.7891541,14.18433
Dobřív,bus,49.71541,13.6846437
"Dobřív,chaty",bus,49.72226,13.7054186
"Dobřív,Melmatěj",bus,49.7289429,13.7247438
"Dobřív,Na Fořtovně",bus,49.7178154,13.6945381
"Dobřív,Pavlovsko",bus,49.718132,13.666193
"Dobřív,u hřbitova",bus,49.7166862,13.6783247
Dobšice,bus,50.13424,15.2695341
Dobšice nad Cidlinou,train,50.1400681,15.2636061
"Dobšice,Libněves",bus,50.13848,15.2636356
Dobšín,bus,50.4830666,15.1118736
"Dobšín,Kamenice",bus,50.4904251,15.1028929
"Dobšín,Kamenice,křiž.",bus,50.4900551,15.11162
"Doksany,škola",bus,50.451725,14.167428
"Doksany,zámek",bus,50.4553261,14.1611223
Doksy,train,50.57361,14.6469545
"Doksy,aut.st.",bus,50.5635757,14.65366
"Doksy,Břehyně,II",bus,50.5842552,14.6947317
"Doksy,Břehyně,rybník",bus,50.57525,14.6922865
"Doksy,Lipové nám.",bus,50.56751,14.6578636
"Doksy,Mimoňská",bus,50.56554,14.6658907
"Doksy,most",bus,50.11658,14.0405846
"Doksy,rozcestí",bus,50.1298065,14.0427189
"Doksy,Zbyny,náves",bus,50.5554,14.6170177
"Doksy,žel.st.",bus,50.5725746,14.6469975
Dolánky n.Ohří,bus,50.47346,14.1649971
Dolany,bus,50.11587,14.1493673
"Dolany n.Vlt.,Debrno",bus,50.21708,14.323966
Dolany nad Vltavou,train,50.2243576,14.348917
Doležalova,bus,50.1019173,14.5706511
Doliny,bus,50.0574226,14.4254436
Dolní Beřkovice,bus,50.3925819,14.4518242
"Dolní Beřkovice,Cukrovar",bus,50.38644,14.4513607
"Dolní Beřkovice,Josefka",bus,50.3830032,14.4300575
"Dolní Beřkovice,Komenského",bus,50.3917656,14.4445066
"Dolní Beřkovice,Posadovice",bus,50.3664551,14.4511833
"Dolní Beřkovice,Vliněves",bus,50.37373,14.44961
"Dolní Beřkovice,Žel.st.",bus,50.3890152,14.4370165
Dolní Bousov,train,50.44182,15.1317577
"Dolní Bousov,Bechov",bus,50.44007,15.084341
"Dolní Bousov,Horní Bousov",bus,50.4616432,15.1151123
"Dolní Bousov,nám.",bus,50.43869,15.1279011
"Dolní Bousov,Příhonská",bus,50.43544,15.11801
"Dolní Bousov,rozc.Ošťovice",bus,50.4598579,15.1315613
"Dolní Bousov,V Lipkách",bus,50.4451866,15.1269064
"Dolní Bousov,Vlčí Pole",bus,50.4153252,15.1360521
Dolní Březinka,train,49.6614151,15.3805723
"Dolní Břežany,Hradišťátko",bus,49.96271,14.4477825
"Dolní Břežany,Hřiště",bus,49.9608765,14.4523191
"Dolní Břežany,Lhota",bus,49.95618,14.43284
"Dolní Břežany,Na kopečku",bus,49.96908,14.4620409
"Dolní Břežany,Na Rovném",bus,49.9583244,14.4496059
"Dolní Břežany,Na Spálence",bus,49.9667969,14.4405117
"Dolní Břežany,Nad Mlýnem",bus,49.9653969,14.4481211
"Dolní Břežany,Náměstí",bus,49.96452,14.4592094
"Dolní Břežany,Obecní úřad",bus,49.96329,14.4555807
"Dolní Břežany,Škola",bus,49.9661255,14.4608049
"Dolní Břežany,Zálepy",bus,49.9484825,14.4111729
Dolní Břežany-Jarov,train,49.947,14.3970776
Dolní Černošice,bus,49.96297,14.3323708
Dolní Hbity,bus,49.6574745,14.1692457
"Dolní Hbity,Brodce",bus,49.6510735,14.16401
"Dolní Hbity,Horní Líšnice,rozc.",bus,49.64529,14.1553259
"Dolní Hbity,Jelence",bus,49.67065,14.1569748
"Dolní Hbity,Káciň",bus,49.6488838,14.1214
"Dolní Hbity,Káciň,Hřibče",bus,49.63998,14.1375074
"Dolní Hbity,Kaliště",bus,49.6477242,14.1880627
"Dolní Hbity,Luhy",bus,49.6592522,14.196147
"Dolní Hbity,Nepřejov",bus,49.64075,14.1768217
"Dolní Hbity,Nepřejov,rozc.",bus,49.65063,14.17344
"Dolní Hbity,Smrčí",bus,49.6569824,14.1855288
"Dolní Hbity,Třtí,dolní",bus,49.6558876,14.2218542
"Dolní Hbity,Třtí,horní",bus,49.6588,14.2120132
Dolní Hrachovice,bus,49.4862366,14.7980566
"Dolní Hrachovice,Vaněčkův mlýn",bus,49.4922943,14.7947817
Dolní Chabry,bus,50.1510353,14.4375668
Dolní Chvatliny,bus,49.98072,15.0680447
"Dolní Chvatliny,Horní Chvatliny",bus,49.97483,15.0573864
"Dolní Chvatliny,Mančice",bus,49.98279,15.0926294
Dolní Kralovice,bus,49.6442261,15.1783094
"Dolní Kralovice,Martinice",bus,49.63943,15.20564
"Dolní Kralovice,Střítež,rozc.",bus,49.66165,15.1568928
"Dolní Kralovice,Zahrádčice",bus,49.65867,15.19439
"Dolní Kralovice,záv.",bus,49.6412468,15.1736145
"Dolní Krupá,pošta",bus,50.54615,14.870121
"Dolní Krupá,u lípy",bus,50.5508423,14.853817
"Dolní Krupá,u mostu",bus,50.5441475,14.8782253
"Dolní Lochov,hlavní silnice",bus,50.45577,15.2849283
Dolní Měcholupy,bus,50.0565,14.5620842
Dolní Počernice,bus,50.0849838,14.5772009
"Dolní Podluží,křiž.",bus,50.87528,14.5845909
"Dolní Podluží,škola",bus,50.87963,14.5955572
Dolní Pohleď,bus,49.74577,15.133996
"Dolní Pohleď,Měchonice",bus,49.7474976,15.1535082
"Dolní Pohleď,záv.",bus,49.7457161,15.1416311
Dolní Slivno,bus,50.3084564,14.732913
"Dolní Slivno,Slivínko",bus,50.3033676,14.7276888
Dolní Stakory,bus,50.4384537,14.9731865
Dolní Šárka,bus,50.11555,14.37425
Dolní Zimoř,bus,50.4266319,14.5017691
"Dolní Zimoř,Horní Zimoř",bus,50.4296455,14.5015125
Dolnočernošická,bus,49.9598236,14.3290415
Dolnokrčská,bus,50.035984,14.4426336
Dolnokřeslická,bus,50.0242767,14.5605345
Dolnoměcholupská,bus,50.0606,14.5567255
Dolnopočernický hřbitov,bus,50.0911636,14.5772362
Dománovice,bus,50.1116638,15.3225994
Domašín,train,49.7149963,14.8366938
Domousnice,bus,50.3920822,15.1015205
"Domousnice,Skyšice",bus,50.42131,15.10653
"Domousnice,žel.zast.",bus,50.3972549,15.1069794
Domoušice,train,50.23298,13.7226124
"Domoušice,Solopysky",bus,50.25933,13.7461033
Domov seniorů Ďáblice,bus,50.13546,14.4741259
Donatellova,bus,50.0726547,14.5082588
Donovalská,bus,50.0374,14.5088844
Dopravní hřiště Vypich,bus,50.08169,14.3438711
Dostihová,bus,50.0125275,14.3939095
Doubek,bus,50.0168381,14.7371731
Doubravčice,bus,50.0226669,14.7918825
"Doubravčice,bytovky",bus,50.02311,14.7957115
"Doubravčice,Na Číhadlech",bus,50.0187721,14.7870312
"Doubravčice,Na Čtvrtích",bus,50.0225258,14.7838125
"Doubravčice,Rozc.Vrátkov",bus,50.02869,14.8081636
"Doubravčice,V Edenu",bus,50.01507,14.78289
Doubravička,bus,50.39658,14.7763138
Drahelčice,bus,50.03146,14.203474
Drahenice,bus,49.51765,13.9614706
Drahlín,bus,49.7330933,13.9639721
"Drahlín,Malý Drahlín",bus,49.7304955,13.951169
"Drahlín,ObÚ",bus,49.7324371,13.9688549
Drahňovice,bus,49.8225365,14.9017639
"Drahňovice,Prak",bus,49.81281,14.9056444
Drahobudice,bus,49.9372864,15.0654249
"Drahobudice,Bílkov",bus,49.9381523,15.0866909
Drahouš,bus,50.08036,13.4763737
Drásov,bus,49.70284,14.1186285
"Drásov,Cihelna",bus,49.70442,14.1005249
"Drásov,Skalka",bus,49.70506,14.0857906
"Drásov,Skalka,letiště",bus,49.7120819,14.0993719
Drazdecká,bus,49.9959068,14.5185432
Drevníky,bus,49.7200127,14.2769451
"Drevníky,Drhovce",bus,49.7303963,14.2356367
"Drevníky,Nechalov",bus,49.7269669,14.247448
"Drevníky,Slovanská Lhota,Milina",bus,49.7286,14.256279
"Drevníky,Slovanská Lhota,rozc.",bus,49.72946,14.2606277
Dreyerova,bus,50.0363159,14.3828335
Drhovy,bus,49.73921,14.2315941
"Drhovy,Homole",bus,49.7365723,14.2646618
"Drhovy,Nový Dvůr",bus,49.74688,14.223526
Drinopol,tram,50.0839081,14.3706675
Drnek,bus,50.195694,13.9714308
"Drnek,hl.sil.",bus,50.21229,13.9256964
Drobná,bus,50.07283,14.55634
Drobovice,bus,49.88913,15.4121647
"Drobovice,rozc.",bus,49.8915367,15.4156837
Droužetice,bus,49.28806,13.8978052
"Droužetice,Černíkov",bus,49.3026276,13.8948345
Drozdov,bus,49.8639069,13.8402252
"Drozdov,škola",bus,49.8598824,13.8406
Druhanická,bus,50.07228,14.6528292
"Družec,most",bus,50.10422,14.0500679
"Družec,Na Rybárně",bus,50.088707,14.0337448
"Družec,náměstí",bus,50.1029778,14.0457983
"Družec,Nový Mlýn",bus,50.0934525,14.038125
"Družec,U Rybníka",bus,50.1080666,14.05257
Družná,bus,50.0120659,14.4168005
"Držkov,nám.",bus,50.6877,15.30196
"Držkov,u Rydvalů",bus,50.6900024,15.3099613
Dřetovice,bus,50.18397,14.2092609
Dřevařská,bus,50.12632,14.56448
Dřevčice,bus,50.16679,14.6289454
"Dřevčice,Cihelna",bus,50.1715164,14.6385212
"Dřevčice,Rozc.Jenštejn",bus,50.1599541,14.6122723
Dřínov,bus,50.2748756,14.0742922
"Dřínov,Drchkov",bus,50.2655258,14.0754137
"Dřínov,Náves",bus,50.27365,14.3984146
"Dřínov,Stavadla",bus,50.2699966,14.3964806
"Dřínov,U Kříže",bus,50.2775154,14.3957691
"Dřínov,U Rybníka",bus,50.2742653,14.3994112
Dřísy,bus,50.2563171,14.6446228
"Dřísy,U Vily",bus,50.2517929,14.64392
"Dřísy,Žel.st.",bus,50.2438,14.6360855
"Dubá,aut.nádr.",bus,50.541256,14.5406628
"Dubá,Bukovec",bus,50.5073471,14.4883709
"Dubá,Deštná",bus,50.52299,14.5173178
"Dubá,Horky,odb.",bus,50.55484,14.588542
"Dubá,Křenov",bus,50.5220261,14.5622654
"Dubá,Nedamov",bus,50.53093,14.5706615
"Dubá,Nedamov,koupaliště",bus,50.53651,14.5557833
"Dubá,Nedamov,vodárna",bus,50.5307159,14.5631857
"Dubá,Nový Berštejn",bus,50.5505066,14.5436687
"Dubá,Nový Berštejn,střelnice",bus,50.549263,14.55108
"Dubá,Rozprechtice háj.",bus,50.5299644,14.5455017
"Dubá,Rozprechtice křiž.",bus,50.5259171,14.5480871
"Dubá,školka",bus,50.5382729,14.543788
"Dubá,Zakšín",bus,50.5195045,14.4982042
Dubeč,bus,50.06176,14.5961342
Dubeček,bus,50.05602,14.5800676
Dubečská,tram,50.0654945,14.5018749
Dubečský hřbitov,bus,50.0531235,14.5801487
Dubenec,bus,49.6951981,14.0793085
Dublovice,bus,49.6698151,14.3593292
"Dublovice,Břekova Lhota",bus,49.6589,14.3646841
"Dublovice,Chramosty",bus,49.665802,14.3236513
"Dublovice,Líchovy",bus,49.67502,14.320817
"Dublovice,Líchovy,rozc.Bučily",bus,49.6761322,14.3090086
"Dublovice,Líchovy,zbrojnice",bus,49.6762962,14.31912
"Dublovice,Zvírotice",bus,49.6993332,14.3025656
"Dublovice,Zvírotice,Rybárna",bus,49.6968765,14.3196831
"Dubno,kaplička",bus,49.69551,14.0513992
"Dubno,restaurace",bus,49.69736,14.0530977
"Dubno,Učiliště",bus,49.6850967,14.0465183
Dukla-Juliska,bus,50.1107,14.3859167
Dunajecká,bus,50.12573,14.4266272
Dunice,bus,49.6020775,15.1531553
Důstojnické domy,bus,50.12427,14.5319748
Dušníky,bus,50.4224472,14.1929264
Dvorce,tram,50.0477257,14.4143839
Dvorní,bus,50.1475334,14.4483843
Dvory,bus,50.2116623,14.9960289
"Dvory,Veleliby",bus,50.21168,15.0215378
"Dvory,Veleliby,hlavní silnice",bus,50.2119179,15.0325823
Dvořákova,bus,50.14526,14.4375324
Dymokury,bus,50.2475624,15.2039137
"Dymokury,Černá Hora",bus,50.2492523,15.1787462
"Dymokury,Na Drážce",bus,50.2475052,15.1954145
"Dymokury,Svídnice",bus,50.2643433,15.1814489
"Dymokury,Svídnice,u trati",bus,50.2681961,15.1921654
"Dymokury,žel.zast.",bus,50.2545433,15.2162657
Dyrinka,bus,50.10765,14.3744669
Elišky Přemyslovny,bus,49.97494,14.3931131
Farkáň,bus,50.0615959,14.3827457
Felbabka,bus,49.8135757,13.9417229
"Felbabka,rozc.",bus,49.81343,13.9395266
Ferrariho,bus,50.0413132,14.30453
Filadelfie,bus,50.04862,14.4531975
Filmové ateliéry Barrandov,bus,50.0311966,14.392292
Filosofská,bus,50.022,14.4282675
Flora,metroA,50.07792,14.4615164
Florenc,metroBC,50.0912437,14.4391136
Formanská,bus,50.0144958,14.5434151
Frahelž,bus,49.1167831,14.72585
Frančíkova,bus,50.0108337,14.3568172
Františka Veselého,bus,50.12156,14.619998
Franty Kocourka,bus,50.06065,14.403367
Fruta,bus,50.0430679,14.5821009
Fryčovická,trolleybus,50.1394157,14.5051384
Generála Janouška,bus,50.1024857,14.5639505
Geologická,tram,50.0365,14.387
Gercenova,bus,50.0500145,14.5435171
Goetheho,bus,50.1074371,14.4040918
Golčův Jeníkov,train,49.83666,15.4680386
Golčův Jeníkov město,train,49.82168,15.4729977
"Golčův Jeníkov,nám.TGM",bus,49.81595,15.477541
"Golčův Jeníkov,Ráj",bus,49.8289642,15.4695
"Golčův Jeníkov,žel.st.rozc.",bus,49.8359146,15.4659719
"Golčův Jeníkov,žel.zast.",bus,49.821537,15.4735651
Grunta,bus,49.97422,15.2536192
Grussova,bus,50.03455,14.3704605
Habrová,bus,50.08794,14.4914856
Hadovitá,bus,50.0515556,14.4567366
Hadovka,tram,50.0994225,14.3751459
Háje,metroC,50.03046,14.5274429
"Háje,betonárna",bus,49.67439,14.0576172
"Háje,Na Važinách",bus,49.67533,14.0496874
Hájek,bus,50.050518,14.6280842
Hájová,bus,50.01735,14.6525841
Halenkovská,bus,50.0628853,14.2868671
Hamplova,bus,50.1597557,14.5257511
Hanspaulka,bus,50.1042061,14.372982
"Harrachov,aut.nádr.",bus,50.76964,15.4357738
"Harrachov,centrum",bus,50.7752724,15.4253473
"Harrachov,Nový Svět,Na mýtě",bus,50.7637672,15.3969421
"Harrachov,Nový Svět,u Motejlků",bus,50.77994,15.412899
"Harrachov,sklárna",bus,50.7806854,15.419734
Hasičská,bus,50.07828,14.6036787
Hasičská stanice Modřany,tram,50.0059433,14.4396925
Hasova,bus,50.01539,14.4268045
Haštalské náměstí,bus,50.091,14.42404
Hatě,train,49.9138336,15.0579967
Hejtmanská,bus,50.1053925,14.5570335
Hellichova,tram,50.08394,14.4043188
Hercovka,tram,50.1220741,14.4512243
Herink,bus,49.967556,14.5751686
Heřmaničky,train,49.602108,14.5845079
"Heřmaničky,Arnoštovice",bus,49.61419,14.6034756
"Heřmaničky,Březina",bus,49.6159554,14.5513783
"Heřmaničky,Dědkov",bus,49.6198463,14.5435009
"Heřmaničky,Jestřebice",bus,49.6222458,14.6165962
"Heřmaničky,Křenovičky",bus,49.6224747,14.5271187
"Heřmaničky,Loudilka",bus,49.5982971,14.5749235
"Heřmaničky,rozc.Arnoštovice",bus,49.6074,14.5941029
"Heřmaničky,rozc.Dolejší mlýn",bus,49.61598,14.6094427
"Heřmaničky,rozc.Durdice",bus,49.60861,14.58616
"Heřmaničky,rozc.Karasova Lhota",bus,49.60645,14.5965347
"Heřmaničky,Velké Heřmanice",bus,49.61302,14.5667763
"Heřmaničky,žel.st.",bus,49.60471,14.5828075
"Heřmanův Městec,nám.",bus,49.9467468,15.6668739
Hládkov,tram,50.0887,14.3875685
Hlasivo,bus,49.4956779,14.7545271
"Hlasivo,Hlasivko,rozc.1.0",bus,49.485836,14.7549915
Hlásná Třebaň,bus,49.9207764,14.1992111
"Hlásná Třebaň,Rovina",bus,49.9234467,14.2279415
Hlavečník,bus,50.0747375,15.4275179
"Hlavečník,u pomníku",bus,50.0779648,15.4266834
Hlavenec,bus,50.2378731,14.7009163
"Hlavice,křiž.",bus,50.63249,14.9192038
"Hlavice,Lesnovek",bus,50.6424561,14.9402342
"Hlavice,odb.Končiny",bus,50.6366844,14.9176235
"Hlavice,Vápno",bus,50.6251144,14.9164629
"Hlavice,Vápno,Na Písku",bus,50.6214943,14.9196558
"Hlavice,ves",bus,50.63219,14.9221115
Hlávkova,bus,50.0368233,14.3145828
Hlavní,bus,50.0462265,14.4876175
Hlavní nádraží,metroC,50.0860825,14.4351139
Hleďsebe,train,50.36369,14.5624952
Hlízov,train,49.981842,15.2934761
"Hlízov,u pomníku",bus,49.98357,15.2940083
"Hlízov,u váhy",bus,49.9877777,15.2967453
Hlohová,bus,50.0564346,14.5020008
Hloubětín,metroB,50.10618,14.5366907
Hlubočepy,tram,50.0417938,14.4043875
Hluboký Důl,train,50.00232,15.2186432
Hluboš,bus,49.7459641,14.0205164
"Hluboš,Kardavec",bus,49.72907,14.0139074
"Hluboš,Loudilka",bus,49.7350845,14.0157976
"Hlubyně,dolní",bus,49.56059,13.9263725
"Hlubyně,horní",bus,49.5611877,13.92014
"Hlušice,Hlušičky",bus,50.2623329,15.3963919
"Hlušice,kult.dům",bus,50.2619476,15.4041767
"Hlušice,škola",bus,50.2618942,15.4001236
Hlušičkova,tram,50.0640144,14.31641
Hněvice,train,50.4533424,14.3612461
Hněvkovice,bus,49.68553,15.2034636
"Hněvkovice,Habrovčice,rozc.",bus,49.68319,15.212163
"Hněvkovice,Chotěměřice",bus,49.69007,15.1878738
"Hněvkovice,Nová Ves,rozc.1.0",bus,49.6904564,15.1920071
"Hněvkovice,Ostřice rozc.1.0",bus,49.6822777,15.2201157
Hněvkovského,bus,50.03227,14.5185871
"Hobšovice,I",bus,50.270153,14.1618128
"Hobšovice,II",bus,50.2725372,14.1639776
"Hobšovice,Křovice",bus,50.28441,14.1567774
"Hobšovice,Křovice I",bus,50.28621,14.1513023
"Hobšovice,Skůry",bus,50.2819061,14.1647215
Hodkov,train,49.7857361,15.1638956
Hodkov zast.,train,49.7778549,15.1543474
"Hodkovice n.Mohelkou,aut.nádr.",bus,50.6675949,15.0956049
Högerova,bus,50.03455,14.3806
Holečkova,bus,50.0742226,14.3949718
"Holedeč,Holedeček",bus,50.2829475,13.5603285
Holedeček,train,50.28497,13.5586653
Holešovická tržnice,tram,50.09834,14.4443007
"Holín,Horní Lochov",bus,50.453,15.2995262
"Holín,odb.Prachovské skály",bus,50.44676,15.323842
"Holotín,rozc.",bus,49.951107,15.58314
Holoubkovská,bus,50.0438652,14.5597973
Holubice,bus,50.20183,14.2933559
"Holubice,Kozinec",bus,50.1967468,14.2950888
"Holubice,Kozinec,Habrová",bus,50.1989,14.2977667
"Holubice,Na vodotoči",bus,50.2007637,14.301342
Holyně,tram,50.0271835,14.3582382
Holýšovská,bus,50.0402527,14.3182335
Horčápsko,bus,49.5842857,13.984623
"Horčápsko,Hráze",bus,49.5817261,13.9761763
Horčičkova,bus,50.032,14.5344172
Horka I,bus,49.98211,15.4398947
"Horka I,Borek",bus,49.9815826,15.4235325
"Horka I,Borek,rozc.",bus,49.9866562,15.432888
"Horka I,rozc.Bojmany",bus,49.96951,15.4354219
"Horka I,Svobodná Ves,dolní",bus,49.97739,15.4425631
"Horka I,Svobodná Ves,horní",bus,49.9840851,15.4529486
"Horka I,Svobodná Ves,střed",bus,49.981266,15.4483156
"Horka II,Buda",bus,49.7360764,15.1264029
"Horka II,Čejtice,rozc.",bus,49.7131348,15.1465006
"Horka II,Onšovec,rozc.",bus,49.72052,15.1255465
Horky,tram,50.06145,14.4466267
Horky n.Jiz.,bus,50.32655,14.8559952
"Horky n.Jiz.,u hřbitova",bus,50.3314972,14.8550339
Horky u Čáslavi,train,49.87188,15.4429359
"Horky,křiž.",bus,49.8704453,15.4352474
"Horky,Skalka",bus,49.8718262,15.4348612
Horní Beřkovice,train,50.35719,14.3552094
"Horní Beřkovice,ObÚ",bus,50.3592339,14.3458834
"Horní Beřkovice,točna",bus,50.3551674,14.3624935
"Horní Beřkovice,žel.st.",bus,50.35668,14.3537531
Horní Bezděkov,bus,50.0822258,14.0674868
"Horní Bezděkov,křižovatka",bus,50.0829659,14.0763187
"Horní Bezděkov,Pod Hřbitovem",bus,50.08017,14.0620928
Horní Bukovina,bus,50.54297,14.9255371
"Horní Bukovina,Dolní Bukovina",bus,50.5427551,14.9357424
"Horní Bukovina,Dolní Bukovina,koupaliště",bus,50.5468025,14.9336462
"Horní Bukovina,odb.",bus,50.5356674,14.9378319
Horní cesta,bus,50.033268,14.39645
Horní Kruty,bus,49.9196,14.9597826
"Horní Kruty,Bohouňovice II",bus,49.91449,14.9722319
"Horní Kruty,Dolní Kruty",bus,49.91481,14.9583216
"Horní Kruty,Přestavlky",bus,49.91129,14.9569416
"Horní Kruty,Újezdec",bus,49.8997574,14.947238
"Horní Kruty,Újezdec,rozc.",bus,49.8923721,14.9448872
Horní Ledeč,train,49.6959534,15.2833567
Horní Lysolaje,bus,50.1296043,14.3655291
Horní Nerestce,train,49.4979362,14.0565729
Horní Počaply,bus,50.4246864,14.3894377
"Horní Počaply,Elektrárna I",bus,50.4170456,14.4113932
"Horní Počaply,Elektrárna II",bus,50.4149628,14.4212751
"Horní Počaply,Křivenice",bus,50.40934,14.429924
"Horní Počaply,Porobeton",bus,50.4120178,14.4261217
"Horní Počaply,žel.st.",bus,50.4224472,14.3856668
Horní Slivno,bus,50.30473,14.7054882
Hornocholupická,bus,49.997467,14.4251671
Hornosín,bus,49.4830933,13.8395643
Horoměřice,bus,50.1317673,14.3391333
"Horoměřice,Lidl",bus,50.14145,14.3435011
"Horoměřice,Švejkova",bus,50.13182,14.3485842
"Horoměřice,V Lipkách",bus,50.1358833,14.33635
"Horoměřice,Velká Brána",bus,50.1387024,14.3360853
Horosedly,bus,49.51581,14.0504026
Horoušany,bus,50.10623,14.740984
"Horoušany,Horoušánky,Náves",bus,50.09875,14.7246761
"Horoušany,Horoušánky,U Tří svatých",bus,50.0996323,14.71245
"Horoušany,Horoušánky,Za Panskou zahradou",bus,50.10233,14.7268972
"Horoušany,U Rybníka",bus,50.1080551,14.7412
Horušice,bus,49.9954,15.4284153
Hořany,bus,50.0976257,14.9456406
Hořátev,train,50.1533775,15.0295286
"Hořátev,prodejna",bus,50.14995,15.04127
"Hořátev,technologický park",bus,50.15173,15.0250769
"Hořátev,ZD",bus,50.1497879,15.0427227
Hořesedly,bus,50.16225,13.6039248
"Hořesedly,otočka",bus,50.1636276,13.6047268
"Hořesedly,u školy",bus,50.1619339,13.5994568
Hořešovice,bus,50.2705574,13.9653721
Hořešovičky,bus,50.2745934,13.9561386
"Hořice,kult.dům",bus,49.59865,15.185689
"Hořice,rozc.",bus,49.6016159,15.1905127
Hořín,bus,50.34443,14.4625072
"Hořín,Brozánky",bus,50.34933,14.4592495
"Hořín,Brozánky,Staré Brozánky",bus,50.35311,14.4603863
"Hořín,Vrbno",bus,50.32465,14.4514494
"Hořín,Zelčín",bus,50.3256836,14.4398327
Hořovice,train,49.8433075,13.8990383
"Hořovice,cihelna",bus,49.83033,13.9034081
"Hořovice,Komenského",bus,49.8347473,13.9064083
"Hořovice,Letná",bus,49.8436966,13.9040794
"Hořovice,nám.B.Němcové",bus,49.83365,13.90236
"Hořovice,nemocnice",bus,49.84124,13.9151592
"Hořovice,nemocnice rozc.",bus,49.83861,13.913063
"Hořovice,Palackého nám.",bus,49.83638,13.903327
"Hořovice,Sklenářka",bus,49.843895,13.889782
"Hořovice,u Dražovky",bus,49.83032,13.9057159
"Hořovice,u garáží",bus,49.8316231,13.8842115
"Hořovice,u hřbitova",bus,49.8355,13.9116182
"Hořovice,u zámku",bus,49.83871,13.9083347
"Hořovice,Valdek",bus,49.8382,13.8971138
"Hořovice,Vrchlického",bus,49.8341179,13.9072151
"Hořovice,žel.st.",bus,49.84252,13.8986139
Hořovičky,bus,50.15555,13.5304222
"Hořovičky,Bukov",bus,50.14336,13.5033131
"Hořovičky,Hokov",bus,50.1565132,13.5620213
"Hořovičky,Hokov,rozc.",bus,50.15948,13.5566807
"Hořovičky,Vrbice",bus,50.17043,13.5257273
"Hospozín,hostinec",bus,50.3080254,14.1726866
"Hospozín,nad kostelem",bus,50.30763,14.1738863
"Hospozín,ObÚ",bus,50.3041458,14.1705637
"Hospozín,závod",bus,50.3085976,14.1674023
Hostavice,bus,50.0902176,14.5634842
Hostín,bus,50.3387833,14.5885143
Hostín u Vojkovic,bus,50.2961121,14.3953056
"Hostín,u křížku",bus,50.34224,14.589426
"Hostín,V Lukách",bus,50.3475342,14.5744877
Hostivařská,tram,50.0527725,14.5294981
Hostivařské náměstí,bus,50.0501175,14.5263
Hostivařský hřbitov,bus,50.0467339,14.5233173
Hostivařský pivovar,bus,50.04651,14.5496216
Hostivice,train,50.08408,14.2583828
"Hostivice,Břve",bus,50.0696068,14.2425184
"Hostivice,Břve,Sportovní hala",bus,50.0686951,14.24707
"Hostivice,centrum",bus,50.08131,14.255105
"Hostivice,Jeneček",bus,50.0821,14.2401495
"Hostivice,K Dálnici",bus,50.08389,14.2702875
"Hostivice,Litovice",bus,50.07962,14.2451086
"Hostivice,Na Pískách",bus,50.0760231,14.2575922
"Hostivice,Nádraží",bus,50.0836258,14.2589779
"Hostivice,Nouzov",bus,50.0803528,14.2628021
"Hostivice,Palouky",bus,50.07901,14.2802248
"Hostivice,Průmyslová",bus,50.0790672,14.2686443
"Hostivice,Sportovců",bus,50.07926,14.2418852
"Hostivice,Stadion",bus,50.0806847,14.2487354
"Hostivice,Staré Litovice",bus,50.07645,14.238533
"Hostivice,Ve Vilkách",bus,50.0831833,14.2321959
Hostivice-Litovice,train,50.0716934,14.2246094
Hostivice-Sadová,train,50.0751076,14.2667789
Hostivice-U hřbitova,train,50.08387,14.2304621
Hostomice pod Brdy,train,49.8314552,14.0477247
"Hostomice,Bezdědice",bus,49.83294,14.0296869
"Hostomice,Lštěň",bus,49.81775,14.0617418
"Hostomice,Lštěň,rozc.",bus,49.8191757,14.06605
"Hostomice,nám.",bus,49.82557,14.0460939
"Hostomice,odb.Zátor",bus,49.8218422,14.0444164
"Hostomice,Radouš",bus,49.83876,14.0187483
"Hostomice,Radouš,u křížku",bus,49.83763,14.0213919
"Hostomice,škola",bus,49.82602,14.0413961
"Hostomice,žel.st.",bus,49.8311424,14.0460129
Hostouň,bus,50.11665,14.2015333
Hostouň u Prahy,train,50.1048927,14.2093134
"Hostouň,Na Pohoří",bus,50.1143379,14.2020473
"Hostouň,u hřiště",bus,50.1106148,14.2038355
Hostovlice,bus,49.8604965,15.4652109
Hostýnská,bus,50.0810661,14.495532
Hotel Golf,tram,50.06803,14.3466673
Hovorčovice,bus,50.1818352,14.51675
"Hovorčovice,U Kostela",bus,50.1797447,14.517621
Hraběšín,bus,49.85266,15.3315516
Hradčanská,metroA,50.0972977,14.4048729
Hradčany,bus,50.1588364,15.2658091
"Hradčany,ObÚ",bus,50.1565132,15.2719107
Hradební,bus,50.0907478,14.427145
"Hradec,Hamry,rozc.0.7",bus,49.7169,15.2808275
"Hradečno,Nová Studnice",bus,50.1843376,13.9732151
"Hradečno,Nová Ves",bus,50.18795,13.9988327
"Hradečno,Obora",bus,50.1755371,13.9813976
"Hrádek,nad záv.",bus,49.721817,13.6478481
Hradešín,bus,50.0379,14.7598314
"Hradešín,ObÚ",bus,50.038723,14.7559042
Hradiště,bus,49.6828232,14.848959
"Hradiště,rozc.",bus,49.6786232,14.8527794
Hradištko,bus,50.16617,14.9366627
"Hradištko,Brunšov",bus,49.8564224,14.4020405
"Hradištko,Chaty",bus,50.1617928,14.9272156
"Hradištko,Kersko Hrabalova",bus,50.1588135,14.902729
"Hradištko,Kersko U Pramene",bus,50.15416,14.910017
"Hradištko,Kersko Branaldova",bus,50.1609726,14.91222
"Hradištko,Kersko hl.sil.",bus,50.1379738,14.9055672
"Hradištko,Osada",bus,49.8683624,14.4206562
"Hradištko,Pikovice,Most",bus,49.8770523,14.4273949
"Hradištko,Pikovice,Obec",bus,49.87473,14.4270973
"Hradištko,Pikovice,Pod Medníkem",bus,49.8733253,14.4318686
"Hradištko,Rajchardov",bus,49.8622475,14.4066372
"Hradištko,U Rybníčku",bus,49.8647537,14.4114189
"Hradištko,Zámek",bus,49.86775,14.4091015
Hracholusky,bus,50.0018349,13.7673483
"Hracholusky,rozc.Novosedly",bus,50.0005074,13.7551546
Hrazanská,bus,49.9775848,14.4395132
"Hrazany,Hrazánky,rozc.1.7",bus,49.5241852,14.3544893
Hrdlív,bus,50.1993942,14.0720863
Hrdlořezská,bus,50.0937843,14.5095472
Hrdlořezy,bus,50.4516068,14.8743916
"Hrdlořezy,Přední důl",bus,50.4455032,14.8856583
Hrejkovice,bus,49.4742165,14.289938
"Hrejkovice,Chlumek,rozc.0.8",bus,49.46845,14.3071289
"Hrejkovice,Chlumek,rybník Zlatina",bus,49.46137,14.33088
"Hrejkovice,Chlumek,samoty",bus,49.4708176,14.3008156
"Hrejkovice,Níkovice,rozc.1.0",bus,49.4966545,14.3030348
"Hrejkovice,ObÚ",bus,49.47446,14.2919769
"Hrejkovice,Pechova Lhota",bus,49.4958153,14.2875
"Hrejkovice,Pechova Lhota,rozc.",bus,49.50239,14.2929726
Hrnčíře,bus,49.999218,14.51675
Hrnčířský hřbitov,bus,50.00109,14.5163221
"Hrubý Jeseník,Kovárna",bus,50.2501373,15.1002321
"Hrubý Jeseník,U Parku",bus,50.2517776,15.0915709
Hrusice,bus,49.90979,14.7386513
"Hrusice,Na Šmejkalce",bus,49.90324,14.7446012
"Hrusice,Vlčí halíř",bus,49.92094,14.7387209
Hrušov,bus,50.345314,14.8456
"Hrušov,u křížku",bus,50.3421,14.8510284
Hřebeč,bus,50.1377678,14.1600437
"Hřebeč,Netřeby",bus,50.1317024,14.1530313
"Hřebeč,základní škola",bus,50.1359,14.1644335
Hřebečníky,bus,49.98542,13.7529564
"Hřebečníky,Týřovice",bus,49.98018,13.7849226
"Hřebečníky,Újezdec,rozc.",bus,49.99725,13.7442675
Hřebenka,bus,50.0751,14.39035
Hředle,bus,49.9009476,13.9227991
"Hředle,pod Džbánem",bus,50.1937141,13.7461414
Hříbková,bus,50.0204,14.5804672
Hřiměždice,bus,49.687027,14.2739878
"Hřiměždice,Háje",bus,49.6957169,14.2648611
"Hřiměždice,Vestec",bus,49.6799126,14.2643538
"Hřiměždice,Vestec,kaplička",bus,49.68056,14.2693758
"Hřiměždice,Vestec,rozc.",bus,49.6753845,14.2499084
Hřivice,train,50.28546,13.72522
Hudčice,train,49.527668,13.9285374
"Hudčice,lom",bus,49.5281219,13.9176435
"Hudlice,Dibří",bus,49.9587555,14.0071287
"Hudlice,dolní",bus,49.9610443,13.97559
"Hudlice,horní",bus,49.9621735,13.9680119
"Hudlice,u kříže",bus,49.9628372,13.965498
Hulice,bus,49.7110977,15.0852413
"Hulice,úpravna",bus,49.7209435,15.0848732
Hulická,bus,50.0777664,14.6602678
"Humpolec,aut.nádr.",bus,49.5397,15.3458624
"Humpolec,Lhotka",bus,49.5580673,15.2740231
"Humpolec,Petrovice",bus,49.5400276,15.2793636
"Humpolec,pošta",bus,49.54105,15.3540335
"Humpolec,rozvodna",bus,49.546772,15.33796
"Humpolec,strojírny",bus,49.5414352,15.3382788
"Humpolec,Trucbaba",bus,49.54138,15.3294563
Huntířovská,bus,50.12955,14.5449171
Hůrka,metroB,50.04795,14.3403835
Husí Lhota,bus,50.4374275,15.0000534
"Husinec,Rozc.",bus,50.1753,14.3717051
"Husinec,Řež",bus,50.1706123,14.3603649
"Husinec,Řež,Sídliště",bus,50.17244,14.361948
"Husinec,Řež,Záv.",bus,50.17718,14.3585262
"Husinec,Samota",bus,50.17929,14.3913336
Hutě,bus,50.1084137,14.5585079
Hutmanka,bus,50.05712,14.3693132
Hvězdonice,train,49.87251,14.771328
Hvozd,bus,50.05239,13.6979561
"Hvozd,Žďáry",bus,50.0586472,13.6772394
Hvozdec,bus,49.8076973,13.8787041
"Hvozdec,Mrtník",bus,49.79985,13.8734818
"Hvozdec,myslivna",bus,49.8193,13.8866215
Hvozdnice,bus,49.8755569,14.3653955
"Hvozdnice,Chaty",bus,49.8685036,14.3615837
Hvožďany,bus,49.5282135,13.8057423
"Hvožďany,Javory",bus,49.5274353,13.8238029
"Hvožďany,Leletice",bus,49.52541,13.8413477
"Hvožďany,Leletice,Jamky",bus,49.5275078,13.8269882
"Hvožďany,Planiny",bus,49.54224,13.7798052
"Hvožďany,Pozdyně",bus,49.520298,13.7804317
"Hvožďany,Roželov",bus,49.5491943,13.7949028
"Hvožďany,Roželov,Mýta",bus,49.54601,13.7885942
"Hvožďany,Roželov,Na Sedlečku",bus,49.5550423,13.7955856
"Hvožďany,samota",bus,49.5367126,13.8207159
"Hvožďany,Vacíkov",bus,49.5442,13.8372812
"Hvožďany,Vacíkov,Na Dědku",bus,49.56631,13.804616
"Hvožďany,Vacíkov,Nová Luka",bus,49.53871,13.8597031
"Hvožďany,Vacíkov,u křížku",bus,49.5410728,13.8272076
Hybšmanka,bus,50.07795,14.38045
Hýskov,train,49.9888763,14.0446339
"Hýskov,Na Krétě",bus,49.9893646,14.0572357
"Hýskov,Prefa",bus,49.9878578,14.0486479
"Hýskov,u hřbitova",bus,49.9909973,14.0349188
Chabeřice,bus,49.75012,15.0720634
"Chabeřice,Brandýs",bus,49.7602119,15.0453768
"Chabeřice,Holšice",bus,49.7570343,15.0505676
"Chabeřice,rozc.Řendějov",bus,49.75119,15.0760221
Chaloupky,bus,49.7913857,13.870163
"Chaloupky,Neřežín",bus,49.786232,13.8830748
"Chaloupky,Ptákov",bus,49.796936,13.8658552
Chaplinovo náměstí,tram,50.0352974,14.3774252
Charvatce,bus,50.322628,14.9985647
"Charvatce,Květník",bus,50.31446,15.0169153
"Charvatce,na pile",bus,50.3221474,15.0102158
"Chářovice,I",bus,49.82666,14.580965
"Chářovice,II",bus,49.8198547,14.5784111
Chbany,bus,50.3325539,13.4294691
"Chbany,Hořenice,rozc.",bus,50.33692,13.3444061
"Chbany,Malé Krhovice",bus,50.335495,13.3775749
"Chbany,Malé Krhovice,rozc.",bus,50.333683,13.3769541
"Chbany,Poláky",bus,50.3358841,13.3528175
"Chbany,Poláky,točna",bus,50.3359337,13.3543644
"Chbany,Přeskaky,rozc.",bus,50.3323479,13.4185352
"Chbany,rozc.Chudeřín",bus,50.33313,13.4468393
"Chbany,Soběsuky,rozc.",bus,50.34474,13.4281149
"Chbany,Vadkovice",bus,50.3398666,13.3853149
"Chbany,Vadkovice,rozc.",bus,50.3332,13.387969
"Chbany,Vikletice",bus,50.348278,13.4028416
"Chbany,Vikletice,přehrada",bus,50.3462639,13.4160366
"Cheznovice,ObÚ",bus,49.77891,13.784936
Chleby,bus,49.8270378,14.55714
"Chleby,Draho",bus,50.2084427,15.0860806
"Chleby,Rozc.",bus,49.8185272,14.5486307
Chlístov,bus,49.8007774,14.6545582
"Chlístov,Racek,osada",bus,49.8040352,14.6623554
"Chlístov,Racek,rozc.",bus,49.79394,14.6653233
"Chlístov,Žabovřesky",bus,49.794857,14.6510038
Chlístovice,bus,49.88646,15.2045
"Chlístovice,Chroustkov",bus,49.8715935,15.1835518
"Chlístovice,Kralice",bus,49.86444,15.1548347
"Chlístovice,Kraličky",bus,49.86871,15.1478739
"Chlístovice,křiž.",bus,49.88444,15.1980066
"Chlístovice,Pivnisko",bus,49.85258,15.1352091
"Chlístovice,Pivnisko,rozc.",bus,49.8497429,15.145709
"Chlístovice,Svatý Jan",bus,49.8557243,15.14882
"Chlístovice,Vernýřov",bus,49.84726,15.1540279
"Chlístovice,Všesoky",bus,49.8581123,15.1692476
"Chlístovice,Zdeslavice",bus,49.8645363,15.1937208
"Chlístovice,Žandov",bus,49.85899,15.12851
Chlum,bus,49.6927834,14.9961462
Chlum u Rakovníka,train,50.0761337,13.7773237
"Chlum,hl.sil.",bus,50.5761757,14.545351
Chlumčany u Loun,train,50.3443451,13.8456059
"Chlumčany,motorest",bus,50.3319321,13.8405819
"Chlumec n.Cidl.,nemocnice",bus,50.1469536,15.4502535
"Chlumec n.Cidl.,sokolovna",bus,50.1576347,15.459219
"Chlumec n.Cidl.,stará brána",bus,50.1539459,15.45897
"Chlumec n.Cidl.,žel.st.",bus,50.1632576,15.4560118
Chlumec nad Cidlinou,train,50.1635666,15.4571466
Chlumín,bus,50.2886925,14.4497089
Chlustina,bus,49.8797,13.9197521
"Chlustina,rest.",bus,49.87735,13.9202356
Chmeliště,train,49.8956642,15.05632
Chmelná,bus,49.6479568,14.9886551
Chmelnice,tram,50.092556,14.4869614
Choceradská,bus,50.0431442,14.4902639
Chocerady,bus,49.87207,14.8026428
"Chocerady,Komorní Hrádek",bus,49.8664169,14.7985926
"Chocerady,Růženín sídliště",bus,49.88494,14.8270388
"Chocerady,Samechov",bus,49.8794823,14.8484211
"Chocerady,Vestec",bus,49.8594131,14.8246346
"Chocerady,Vestec,osada",bus,49.8631668,14.8214054
"Chocerady,Vlkovec,žel.st.",bus,49.8743134,14.814311
"Chocerady,žel.zast.",bus,49.8698463,14.8060913
Chocnějovice,undefined,50.5763931,14.9728308
"Chocnějovice,Drahotice,u kapličky",bus,50.5806732,14.9834709
"Chocnějovice,Drahotická",undefined,50.57921,14.9796886
"Chocnějovice,Horní Mohelnice",bus,50.5663643,14.9790192
"Chocnějovice,Křivolačiny",bus,50.58337,14.9950209
"Chocnějovice,odb.Sovenice",bus,50.5703163,14.9798279
"Chocnějovice,Ouč",bus,50.5970764,14.9428234
"Chocnějovice,Rostkov",bus,50.58971,14.9464731
"Chocnějovice,Sovenice",bus,50.572216,14.993474
"Chocnějovice,Sovenice,dolní rozc.",bus,50.56934,15.0010223
"Chocnějovice,Sovenická",bus,50.57902,14.9802361
Chodouň,bus,49.8996124,13.9821386
Chodov,metroC,50.0307655,14.49146
Chodovec,bus,50.0395279,14.4904394
Chodovická,bus,50.1126,14.6177273
Chodovská,tram,50.0568962,14.46838
Chodovská tvrz,bus,50.0329475,14.5004253
Cholupice,bus,49.9869,14.4454842
Cholupické náměstí,bus,49.9884071,14.4490843
Cholupický hřbitov,bus,49.98423,14.4610243
Cholupický vrch,bus,49.9941521,14.4349337
Choratice,bus,49.84013,14.8744383
Chorušice,bus,50.3902,14.6719074
"Chorušice,Choroušky",bus,50.3983269,14.6648331
"Chorušice,Velký Újezd",bus,50.40905,14.6262827
"Chorušice,Velký Újezd,bytovky",bus,50.4082565,14.63155
"Chorušice,Zahájí",bus,50.37568,14.6673965
"Choťánky,u trati",bus,50.1403351,15.1638355
"Choťánky,Vrčení",bus,50.14439,15.1681881
"Choťánky,Vystrkov",bus,50.1436348,15.1548061
Choteč,bus,49.98539,14.28341
Chotěšice,bus,50.2788658,15.27464
"Chotěšice,Břístev",bus,50.2880173,15.2302275
"Chotěšice,Břístev,hl.sil.",bus,50.2812767,15.2530794
"Chotěšice,Malá Strana",bus,50.26651,15.281641
"Chotěšice,Nouzov",bus,50.2739449,15.247159
"Chotěšice,Nová Ves",bus,50.2735062,15.2993307
"Chotěšice,Nová Ves,odb.",bus,50.2780571,15.2803411
"Chotěšice,škola",bus,50.2780457,15.2684183
Chotětov,train,50.3396645,14.8102112
"Chotětov,Hřivno",bus,50.3236122,14.7680044
Chotilsko,bus,49.769413,14.3527479
"Chotilsko,Křeničná",bus,49.7658043,14.3910217
"Chotilsko,Křeničná,Záhoří",bus,49.7614441,14.3945179
"Chotilsko,Lipí",bus,49.76503,14.3578157
"Chotilsko,Lipí,Besedná",bus,49.76488,14.3646326
"Chotilsko,Mokrsko",bus,49.7447777,14.33605
"Chotilsko,Prostřední Lhota",bus,49.753727,14.3409929
"Chotilsko,Prostřední Lhota,U Hřiště",bus,49.7540665,14.3358955
"Chotilsko,Sejcká Lhota",bus,49.7530861,14.361845
"Chotilsko,Záborná Lhota",bus,49.7691422,14.3199615
"Chotilsko,Živohošť",bus,49.7581978,14.4229536
Chotkovy sady,tram,50.0950241,14.4090662
Chotouchov,train,49.9704323,15.1210794
Choťovice,undefined,50.14602,15.3290758
"Chotovice,hl.sil.",bus,50.7432175,14.5512991
"Chotoviny,Jeníčkova Lhota",bus,49.4572258,14.7164555
"Chotoviny,Jeníčkova Lhota,háj.",bus,49.458725,14.7268629
"Chotoviny,rozc.2.0",bus,49.4730453,14.6580248
Chotusice,bus,49.952755,15.3942337
"Chotusice,Druhanice",bus,49.94667,15.411067
"Chotusice,k letišti",bus,49.9472122,15.3944569
Chotutice,train,50.0715256,14.9964151
Chotýšany,bus,49.743824,14.8179913
"Chotýšany,Křemení",bus,49.745945,14.7947044
"Chotýšany,Městečko,rozc.",bus,49.7360077,14.819747
"Chotýšany,rozc.",bus,49.7404747,14.811141
"Chotýšany,rozc.Pařezí",bus,49.72885,14.8310766
Chrást,bus,50.11736,14.902422
Chrást nad Sázavou,train,49.8396225,14.5770321
"Chrást,Host.",bus,50.12099,14.8949509
"Chrást,Lisovice",bus,49.59105,13.9681749
Chrášťany,train,50.1428,13.6631536
Chrášťany zast.,train,50.14847,13.67081
"Chrášťany,Benice",bus,49.793644,14.5565
"Chrášťany,Bylany",bus,50.0643158,14.9091616
"Chrášťany,Bylany,Škola",bus,50.066925,14.9075222
"Chrášťany,Chotouň",bus,50.06716,14.9564667
"Chrášťany,Mezcestí",bus,50.0417938,14.2524261
"Chrášťany,Nový Dvůr,rozc.",bus,50.16428,13.6663351
"Chrášťany,Protherm",bus,50.04742,14.26415
"Chrášťany,Scania-Label",bus,50.0506248,14.27197
"Chrášťany,Soběšovice",bus,49.7960243,14.5440207
Chraštice,bus,49.5772247,14.0721731
"Chraštice,Chraštičky",bus,49.5713272,14.0776625
"Chraštice,Chraštičky,u kapličky",bus,49.57194,14.0780411
"Chraštice,Chraštičky,Varkač",bus,49.5722771,14.0867558
"Chraštice,Na dole",bus,49.5825348,14.0720854
Chrášťovice,bus,49.3324852,13.9010267
"Chrášťovice,Klínovice",bus,49.3131027,13.8824492
Chroustov,train,50.06496,14.9972963
"Chroustov,Dvořiště",bus,50.2763863,15.3564835
"Chrudim,aut.st.",bus,49.94944,15.7862339
"Chrudim,Čáslavská",bus,49.9524155,15.78631
"Chrudim,Markovice prodejna",bus,49.953476,15.7559061
Chrustenice,bus,50.004055,14.1527233
"Chrustenice,Na radosti",bus,50.00053,14.1592455
Chržín,bus,50.29504,14.2699709
"Chržín,Budihostice",bus,50.2949333,14.2533846
"Chržín,u mostu",bus,50.2965546,14.2663412
Chřenovice,bus,49.7164879,15.2163076
Chříč,bus,49.9719429,13.6459389
Chudíř,bus,50.3086243,15.0151033
Chvaletice,train,50.03746,15.4186916
"Chvaletice,Hornická Čtvrť",bus,50.0214844,15.4306068
"Chvaletice,u městského úřadu",bus,50.0344048,15.4181986
Chvaly,bus,50.1126671,14.5972176
Chvatěruby,bus,50.23515,14.3465233
"Chyňava,Lhotka u Berouna",bus,49.99569,14.0918531
"Chyňava,Lhotka u Berouna,náves",bus,49.99617,14.09939
"Chyňava,Libečov,náves",bus,50.02658,14.0976763
"Chyňava,Libečov,u křížku",bus,50.04313,14.1027136
"Chyňava,Libečov,u mostu",bus,50.02694,14.0948229
"Chyňava,Malé Přílepy",bus,50.01139,14.1144238
"Chyňava,Malé Přílepy,Teplá stráň",bus,50.0103531,14.1355114
"Chyňava,Podkozí",bus,50.04638,14.1104946
"Chyňava,sídliště",bus,50.0256348,14.06215
"Chyňava,škola",bus,50.02734,14.0739794
"Chyňava,u Jonášů",bus,50.02754,14.0697746
"Chyňava,u Nováků",bus,50.0284,14.0797224
Chýně,bus,50.06111,14.2293406
Chýně jih,train,50.051506,14.2212219
"Chýně,Háje",bus,50.05874,14.21996
"Chýně,Na Vyhlídce",bus,50.05399,14.2262564
"Chýně,Nádraží",bus,50.0590744,14.212698
"Chýně,Pivovarský dvůr",bus,50.06263,14.2325468
"Chýně,Žitná",bus,50.0596771,14.2437754
Chýnice,bus,49.9941444,14.2644176
"Chýnice,Pod Radnicí",bus,49.9958763,14.264245
Chýnovská,bus,50.01635,14.4505339
Chýstovice,bus,49.58541,15.0775023
"Chýstovice,Jedlina,rozc.0.5",bus,49.5831337,15.0709209
"Chýstovice,rozc.0.5",bus,49.5878258,15.0790424
"Chýstovice,rozc.Chyšná",bus,49.5778465,15.0920982
Chyše,train,50.1110573,13.247839
"Chyšky,Hněvanice,rozc.Hrazánky 1.4",bus,49.5131,14.35917
I. P. Pavlova,metroC,50.07554,14.4305944
IKEA Černý Most,bus,50.10453,14.5885038
IKEM,bus,50.0207024,14.4633169
Invalidovna,metroB,50.0978737,14.4650917
Italská,tram,50.0780334,14.4365168
Ivančická,bus,50.14219,14.5119562
Jabkenice,bus,50.32617,15.013154
"Jabkenice,hájovna",bus,50.307003,15.0363293
"Jabkenice,křižovatka",bus,50.3221626,15.0134668
"Jabkenice,rozc.Charvatce",bus,50.3218842,15.012538
"Jablonec n.Jiz.,nám.",bus,50.7032471,15.4296217
Jablonná,bus,49.6613922,14.1386795
"Jablonná,Horní Hbity",bus,49.65352,14.1495981
"Jablonná,Placy",bus,49.6702271,14.1092091
"Jablonné v Podj.,autoservis",bus,50.76307,14.7599564
"Jablonné v Podj.,Postřelná,hl.sil.",bus,50.73541,14.7582912
"Jablonné v Podj.,žel.st.",bus,50.7688446,14.758975
Jahodnice,bus,50.0874367,14.5580835
Jakobiho,bus,50.03308,14.5593538
Jalodvorská,bus,50.0139656,14.4571342
Jana Masaryka,tram,50.073513,14.4406815
Jankov,bus,49.6531,14.73058
"Jankov,Bedřichovice",bus,49.674778,14.7775755
"Jankov,Čestín",bus,49.67329,14.7638693
"Jankov,Jankovská Lhota",bus,49.6653366,14.718812
"Jankov,Jitra",bus,49.6646576,14.7311563
"Jankov,Malostranská",bus,49.65827,14.726532
"Jankov,Nosákov",bus,49.6280823,14.7482395
"Jankov,Odlochovice",bus,49.6280975,14.7637844
"Jankov,Otradovice",bus,49.6488228,14.7021694
"Jankov,Pičín",bus,49.67681,14.7365742
"Jankov,pivovar",bus,49.6516953,14.7248154
Jankovcova,bus,50.1101723,14.4448776
Janov,bus,50.2109032,13.637537
Janovská,bus,50.0405159,14.5668011
Jarníkova,bus,50.0265121,14.4941845
Jarpice,bus,50.3193245,14.0861931
Javorník,bus,49.6864929,15.0268326
"Javorník,u mostu",bus,49.6980438,15.019805
Jedlá,bus,49.7381554,15.2364616
"Jedlá,Horečky",bus,49.73089,15.2459517
Jedomělice,bus,50.2331352,13.9739332
"Jedomělice,u hřiště",bus,50.2307625,13.9700184
Jemnická,bus,50.0494728,14.4589262
Jemníky,bus,50.2086754,14.12097
"Jemníky,křiž.Knovíz",bus,50.2153778,14.1238394
"Jemníky,na Mašině",bus,50.2095261,14.1102753
Jeneč,bus,50.0872726,14.2160711
Jeneč zast.,train,50.0946465,14.2133265
"Jeneč,Komerční zóna",bus,50.0926,14.2062378
"Jeneč,Lidická",bus,50.0893936,14.2143955
"Jeneč,Nádraží",bus,50.0939,14.2124758
"Jeneč,vysílací středisko",bus,50.08807,14.1985626
Jenerálka,bus,50.1078453,14.353838
Jenštejn,bus,50.1530724,14.6123934
"Jenštejn,Dehtáry",bus,50.14287,14.6338053
"Jenštejn,Domov seniorů",bus,50.15421,14.6005316
"Jenštejn,Hradní",bus,50.14956,14.61903
Jeřická,bus,50.11006,14.6077118
"Jeřmanice,hl.sil.",bus,50.6999054,15.0977659
Jesenice,bus,49.60664,14.4762878
"Jesenice,Belnická",bus,49.9692955,14.5290737
"Jesenice,Boudy",bus,49.5838547,14.4798374
"Jesenice,Bytovky",bus,49.9699059,14.5088463
"Jesenice,Dobrošovice",bus,49.59702,14.4945679
"Jesenice,Doublovičky",bus,49.6029434,14.4824905
"Jesenice,Horní Jirčany",bus,49.95198,14.53777
"Jesenice,Horní Jirčany,Vodárna",bus,49.94628,14.5430508
"Jesenice,Chotěšov",bus,50.1203041,13.4810905
"Jesenice,Kocanda",bus,49.9710846,14.5421171
"Jesenice,Martinice",bus,49.5891724,14.4777
"Jesenice,Mezné",bus,49.61932,14.4786968
"Jesenice,nám.",bus,50.0980721,13.4707117
"Jesenice,Osnice",bus,49.9700356,14.5515337
"Jesenice,Osnice,Hřbitov",bus,49.9735832,14.5492964
"Jesenice,Podbořánky",bus,50.05234,13.4509354
"Jesenice,Tlestky",bus,50.0745,13.4645691
"Jesenice,u hřbitova",bus,50.10782,13.4826679
"Jesenice,Zdiměřice,bytovky",bus,49.98328,14.5253677
"Jesenice,Zdiměřice,Canadian School",bus,49.9749146,14.5360451
"Jesenice,Zdiměřice,Sportovní areál",bus,49.9880333,14.5214911
"Jesenice,Zdiměřice,u rybníka",bus,49.97855,14.5322342
"Jesenice,žel.st.",bus,50.09308,13.470294
Jesenická,bus,50.0581322,14.4931841
Jestřabí Lhota,bus,50.0898361,15.2605095
"Jestřabí v Krk.,Křížlice,host.",bus,50.6628647,15.5261
"Jestřabí v Krk.,Křížlice,myslivna",bus,50.6503067,15.5210466
"Jestřebí,křiž.",bus,50.60947,14.5797672
"Jestřebí,Podolec",bus,50.5904922,14.5523157
"Jestřebí,Újezd",bus,50.60243,14.5661154
Ješetice,train,49.5777321,14.596755
"Ješetice,Radíč",bus,49.58565,14.5921907
Jevany,bus,49.96945,14.809721
"Jevany,Bohumil",bus,49.9777222,14.8394117
"Jevany,Černokostelecká",bus,49.97113,14.8161669
"Jevany,Lesní podnik",bus,49.9777679,14.8289957
"Jevany,Penčice",bus,49.9581,14.8210211
"Jevany,Smrčiny",bus,49.9834175,14.8370047
"Jevany,Spojovací",bus,49.97506,14.7954817
Jeviněves,bus,50.3446655,14.3378668
Jezerka,bus,50.0574837,14.4430676
Ježov,bus,49.6127853,15.2337732
Ježovická,bus,50.0697327,14.64965
Jičín,train,50.4304733,15.3612108
"Jičín,aut.st.",bus,50.43398,15.3559113
"Jičín,Komenského nám.",bus,50.4386749,15.3514843
"Jičín,Koněvova",bus,50.4414,15.3442469
Jičíněves,train,50.3739853,15.3366928
Jíkev,bus,50.2626,15.0567694
"Jíkev,u Křivánků",bus,50.2578621,15.0547581
"Jíkev,u Školy",bus,50.2650337,15.0601377
"Jíkev,žel.zast.",bus,50.23966,15.0520735
"Jilemnice,aut.nádr.",bus,50.6069031,15.5067406
"Jilemnice,Hrabačov,křiž.",bus,50.6210938,15.50779
Jilemnická,bus,50.13743,14.5503092
Jílové u Prahy,train,49.8779869,14.5000629
"Jílové u Prahy,Borek",bus,49.87909,14.50113
"Jílové u Prahy,Čs.armády",bus,49.8953323,14.4984951
"Jílové u Prahy,Hřbitov",bus,49.89571,14.4783392
"Jílové u Prahy,Kamenná Vrata",bus,49.89857,14.4687672
"Jílové u Prahy,Kovo",bus,49.89894,14.4776268
"Jílové u Prahy,Luka p.Medníkem",bus,49.87263,14.4670477
"Jílové u Prahy,Luka p.Medníkem,Nádraží",bus,49.866272,14.4621229
"Jílové u Prahy,Náměstí",bus,49.895134,14.4930162
"Jílové u Prahy,Pražská",bus,49.8983574,14.4938059
"Jílové u Prahy,Průmyslová",bus,49.9052544,14.48776
"Jílové u Prahy,Radlík",bus,49.907383,14.49194
"Jílové u Prahy,Rozc.Radlík",bus,49.9120178,14.4981041
"Jílové u Prahy,Studené,Obec",bus,49.8867569,14.4765472
"Jílové u Prahy,Studené,Závod",bus,49.88316,14.4810085
"Jílové u Prahy,Učiliště",bus,49.89737,14.4848881
"Jílové u Prahy,Za Humny",bus,49.90189,14.4947824
Jíloviště,bus,49.9277725,14.3421955
"Jíloviště,Cukrák",bus,49.9351158,14.3570843
"Jíloviště,Hl.sil.",bus,49.9290237,14.3424377
"Jíloviště,Rozcestí Trnová",bus,49.9200058,14.3362656
"Jíloviště,U Mostu",bus,49.925766,14.3384
"Jíloviště,Výzkumný ústav",bus,49.94254,14.3919516
Jílovská,bus,50.0263977,14.43011
Jimlín,train,50.32649,13.7510042
Jince,train,49.78221,13.987299
"Jince,Mlýn",bus,49.7966461,13.9786873
"Jince,Nám.",bus,49.7907829,13.9774637
"Jince,Plešivec",bus,49.7974167,14.0001307
"Jince,Rejkovice,lopatárna",bus,49.81576,13.9675159
"Jince,Rejkovice,žel.st.",bus,49.80771,13.9691544
"Jince,Sokolovna",bus,49.7857475,13.9795132
"Jince,Žel.st.",bus,49.78182,13.9856224
"Jindřichův Hradec,aut.nádr.",bus,49.15406,15.0040979
"Jindřichův Hradec,Děbolín",bus,49.1591225,14.9560032
Jindřišská,tram,50.085083,14.4301577
Jinočany,train,50.02899,14.2627382
"Jinočany,Hlavní",bus,50.0312843,14.2726669
"Jinočany,Logport",bus,50.0331535,14.2763433
"Jinočany,Logport vodojem",bus,50.0311737,14.2799387
"Jinočany,nádraží",bus,50.0296135,14.2630472
"Jinočany,náměstí",bus,50.0326843,14.2677336
"Jinočany,Žižkova",bus,50.0351067,14.2636051
Jinonice,metroB,50.0543671,14.3700666
Jinonická,bus,50.0693855,14.3775167
Jiráskova čtvrť,bus,50.0941,14.5458994
Jiráskovo náměstí,tram,50.076252,14.4141579
Jirčanská,bus,50.0059624,14.4593525
Jirny,bus,50.11587,14.6983089
"Jirny,Kulturní dům",bus,50.118103,14.69603
"Jirny,LE&CO",bus,50.12157,14.6802149
"Jirny,Logistický park",bus,50.125,14.690053
"Jirny,Luční",bus,50.1107635,14.7027311
"Jirny,Nové Jirny,Hájovna",bus,50.10144,14.71121
"Jirny,Nové Jirny,Kaplička",bus,50.10365,14.709
"Jirny,Rozc.",bus,50.1265259,14.7003689
"Jirny,Zámek",bus,50.11402,14.68938
"Jiřetín p.Jedlovou,Lesné",bus,50.8638268,14.5877094
Jiřice,train,50.23881,14.5466919
"Jiřice,Močidla",bus,49.5391464,15.2953186
"Jiřice,Rokosky",bus,49.5558929,15.2916594
"Jiřice,rozc.1.5",bus,49.5398331,15.3087578
Jiřího z Poděbrad,metroA,50.0772552,14.4504709
Jistebnice,bus,49.4855766,14.5279264
"Jistebnice,Hodkov",bus,49.4951439,14.49493
"Jistebnice,Hůrka",bus,49.470356,14.5470715
"Jistebnice,Makov",bus,49.4587,14.5482693
"Jistebnice,Makov,Pazderna",bus,49.4747353,14.5595551
"Jistebnice,Tisová rozc.1.0",bus,49.48031,14.547205
"Jistebnice,Vlásenice",bus,49.4664879,14.5650148
"Jistebnice,Vlásenice,Makov rozc.1.5",bus,49.4675636,14.561162
"Jistebnice,Zvěstonín",bus,49.48761,14.5031338
"Jistebnice,Žofín",bus,49.48319,14.53227
Jitřní,bus,50.02402,14.41307
Jivina,bus,49.79733,13.8348017
Jiviny,bus,50.0777779,14.3049688
"Jizbice,hl.sil.",bus,50.2520256,14.9943829
"Jizbice,Zavadilka",bus,50.2559662,14.9854536
Jizbická,bus,50.1101646,14.622798
Jizerní Vtelno,bus,50.369194,14.8523865
"Jizerní Vtelno,Viadukt",bus,50.37114,14.8651152
Jižní Město,bus,50.034317,14.5383844
Jordánská,bus,50.11104,14.5627928
K Austisu,bus,50.02118,14.3411369
K Barrandovu,tram,50.0354729,14.38343
K Cikánce,bus,49.9975,14.3417168
K Drsnici,bus,50.14268,14.384613
K Dubečku,bus,50.0553665,14.5648165
K Fialce,bus,50.0558853,14.3293667
K Hájům,bus,50.0549545,14.3240452
K Holyni,bus,50.020565,14.3600588
K Horoměřicům,bus,50.13248,14.36852
K Housličkám,bus,50.1299,14.3664656
K Chatám,bus,49.9481239,14.3753471
K Juliáně,bus,50.1178474,14.3010206
K Lesoparku,bus,50.0497,14.53915
K Letišti,trolleybus,50.0956345,14.2935457
K Letňanům,bus,50.14351,14.484067
K Lipanům,bus,50.01575,14.6064339
K Netlukám,bus,50.03349,14.609724
K Noskovně,bus,50.1114655,14.3253
K Obecním hájovnám,bus,50.04293,14.5150671
K Pitkovičkám,bus,50.0246,14.5906343
K Říčanům,bus,50.01535,14.6322012
K Teplárně,bus,50.1687355,14.52105
K Trninám,bus,50.06838,14.3111324
K Třebonicům,bus,50.03716,14.29833
K Tuchoměřicům,bus,50.1161,14.2916
K Vystrkovu,bus,49.99932,14.411006
K Zelenči,bus,50.1232872,14.62397
K Žižkovu,bus,50.09959,14.496417
Kabešova,tram,50.1024628,14.5082712
Kablo,bus,50.06209,14.5383654
Kácov,train,49.78675,15.0188122
Kácov zast.,train,49.775692,15.0309362
"Kácov,Jirsíkova",bus,49.7780724,15.0208836
"Kácov,nám.",bus,49.779995,15.0290594
"Kácov,Račíněves",bus,49.7761536,15.0385065
"Kácov,Zderadinky",bus,49.80098,15.0267191
"Kácov,Zderadiny",bus,49.8070755,15.0286961
"Kácov,Zliv",bus,49.7674828,15.0255337
"Kácov,žel.st.",bus,49.7870941,15.01863
"Kácov,žel.st.rozc.",bus,49.7897072,15.0160789
"Kácov,žel.zast.",bus,49.7751656,15.0300751
Kačerov,metroC,50.04197,14.4608793
Kačice,bus,50.16237,13.9880342
"Kadaň,aut.nádr.",bus,50.38045,13.27586
"Kadaň,u mostu",bus,50.3758469,13.2743177
Kadlín,bus,50.39939,14.6990309
"Kadlín,Ledce",bus,50.41173,14.6887531
Kajetánka,bus,50.0865173,14.3709326
Kalinův mlýn,bus,50.111,14.3675461
Kaliště,bus,49.88214,14.7741995
"Kaliště,Lensedly",bus,49.89434,14.7537813
"Kaliště,Poddubí",bus,49.87388,14.7611551
"Kaliště,V Loučkách",bus,49.8774223,14.7610893
Kalivody,bus,50.20885,13.8426161
Kamberk,bus,49.59698,14.8400431
"Kamberk,Předbořice",bus,49.6062126,14.8298244
"Kamenice,Kuklík",bus,49.89083,14.6229906
"Kamenice,Kult.dům",bus,49.9040146,14.5867481
"Kamenice,Ládví",bus,49.89454,14.613471
"Kamenice,Nová Hospoda",bus,49.91044,14.5839806
"Kamenice,Olešovice",bus,49.90468,14.59064
"Kamenice,Skuheř",bus,49.9018,14.56947
"Kamenice,Štiřín",bus,49.9162521,14.6009207
"Kamenice,Štiřín,U Rybníka",bus,49.9170265,14.5957146
"Kamenice,Těptín",bus,49.8924446,14.5646381
"Kamenice,Těptín,U Kozlího kamene",bus,49.89658,14.568141
"Kamenice,U Dvora",bus,49.90047,14.5816555
"Kamenice,Valnovka",bus,49.89741,14.6057806
"Kamenice,Všedobrovice",bus,49.9173,14.610321
Kamenická,tram,50.09957,14.4288549
Kamenné Zboží,bus,50.1934433,15.0003176
Kamenné Žehrovice,train,50.1402,14.0381317
"Kamenné Žehrovice,Háje",bus,50.12818,14.0287495
"Kamenné Žehrovice,Vaňkovka",bus,50.13663,14.0321884
Kamenný Most u Kralup n.Vlt.,train,50.23933,14.2061024
"Kamenný Most,křiž.",bus,50.2417946,14.205452
Kamenný Přívoz,bus,49.8622551,14.50402
"Kamenný Přívoz,Hostěradice",bus,49.8616,14.4917221
"Kamenný Přívoz,Hostěradice,Dom.důch.",bus,49.8638725,14.4975538
"Kamenný Přívoz,Kamenný Újezdec",bus,49.8575,14.518671
"Kamenný Přívoz,Kašparka",bus,49.8561249,14.5044794
"Kamenný Přívoz,Pošta",bus,49.8608665,14.5031481
"Kamenný Přívoz,U Křížku",bus,49.8667831,14.5034351
"Kamenný Přívoz,Žel.st.",bus,49.8599548,14.5145617
"Kamenný Újezd,rozc.0.6",bus,49.72578,13.6318979
Kamenolom Zbraslav,bus,49.9594154,14.3940687
Kamýcká,bus,50.1306,14.3827486
Kamýk n.Vlt.,bus,49.6409531,14.2526569
"Kamýk n.Vlt.,hřiště",bus,49.64684,14.2521448
"Kamýk n.Vlt.,škola",bus,49.63872,14.2533207
"Kamýk n.Vlt.,u Mášů",bus,49.6402664,14.25641
"Kamýk n.Vlt.,u poříční správy",bus,49.64731,14.249217
"Kamýk n.Vlt.,u školky",bus,49.63668,14.251503
"Kamýk n.Vlt.,Velká",bus,49.66021,14.2524672
"Kamýk n.Vlt.,Velká,Blatnice",bus,49.6554375,14.2540083
"Kamýk n.Vlt.,Velká,Sedla",bus,49.66823,14.2412586
Kanina,bus,50.4245338,14.5998039
"Kanina,žel.zast.",bus,50.4143448,14.6178417
Kapitána Stránského,bus,50.1033249,14.5761757
"Káraný,Most",bus,50.18256,14.7321777
"Káraný,Pošta",bus,50.1747551,14.7362795
"Káraný,Vodárna",bus,50.17847,14.7324562
"Kardašova Řečice,nám.",bus,49.1845245,14.8509712
Kardausova,bus,50.0665741,14.5530815
Karenova,bus,50.063385,14.3683062
Karlík,bus,49.93706,14.26191
Karlínské náměstí,tram,50.09275,14.44518
Karlova Ves,bus,49.9882278,13.86227
"Karlova Ves,hřbitov",bus,49.9920769,13.8609056
Karlovo náměstí,metroB,50.0753021,14.4191093
Karlovy lázně,tram,50.08457,14.4134665
"Karlovy Vary,Mattoniho nábř.",bus,50.2398148,12.8893957
"Karlovy Vary,Mlékárna",bus,50.23489,12.8758936
"Karlovy Vary,Olšová Vrata,rozc.",bus,50.2124519,12.9200706
"Karlovy Vary,Prašná",bus,50.23627,12.8822222
"Karlovy Vary,terminál",bus,50.2301445,12.8645506
"Karlovy Vary,tržnice",bus,50.230957,12.8702087
Karlštejn,train,49.932,14.1751509
Karlštejnská,bus,50.05264,14.3595819
Kařez,bus,49.8245163,13.7830706
"Kařez,u Jednoty",bus,49.8220558,13.7828474
Kařízek,bus,49.8132248,13.7992105
Kateřinky,bus,50.0205,14.5202675
Kateřinská,bus,50.074337,14.426158
Katovická,bus,50.1321335,14.4279
Katusice,bus,50.4459724,14.7775288
"Katusice,Doubravice",bus,50.46159,14.6888781
"Katusice,Spikaly",bus,50.43553,14.7671518
"Katusice,Trnová",bus,50.4483337,14.7182131
"Katusice,Valovice",bus,50.4599266,14.7543879
"Katusice,Valovice,křiž.",bus,50.459877,14.7497816
Kavalírka,tram,50.07004,14.37063
Kavčí hory,bus,50.04898,14.4295416
Kavkazská,bus,50.06955,14.4660168
Kazanka,bus,50.11738,14.4275017
Kazín,bus,49.9510422,14.340826
Kazínská,bus,50.0116653,14.3863525
Kbel,bus,49.98826,15.1445189
"Kbel,Kbílek",bus,49.9849167,15.1512
Kbelská,bus,50.1050453,14.5324688
Kbelský hřbitov,bus,50.1442871,14.5467539
Kbelský lesopark,bus,50.1353378,14.5357122
Kbelský pivovar,bus,50.1304131,14.5474339
Kbely,bus,50.1308823,14.5529337
Ke Březině,bus,49.9932251,14.4678965
Ke Hrázi,bus,50.08682,14.5762558
Ke Kaménce,bus,50.0715179,14.3024168
Ke Kateřinkám,bus,50.02538,14.5155725
Ke Kazínu,bus,49.95641,14.3423414
Ke Klíčovu,bus,50.1127472,14.5064554
Ke Koulce,bus,50.06165,14.4045734
Ke Kříži,bus,50.02949,14.5944433
Ke Schodům,bus,50.014183,14.4158173
Ke Smrčině,bus,50.0176849,14.5251637
Ke Stírce,tram,50.122673,14.4558678
Ke Štěrkovně,bus,49.9569778,14.3714857
Ke Xaverovu,bus,50.0997162,14.6236839
Keblov,bus,49.6772957,15.0710325
"Keblov,háj.",bus,49.67661,15.0915737
"Keblov,u kostela",bus,49.6780739,15.071456
Kelerka,trolleybus,50.11532,14.490201
Kesnerka,bus,50.0578842,14.4020672
Khodlova,bus,50.1102867,14.6040707
Kladno,train,50.12778,14.11333
Kladno město,train,50.1419334,14.0837555
"Kladno,Americká",bus,50.1272469,14.12335
"Kladno,autobusové nádraží",bus,50.1460838,14.1058159
"Kladno,Billundská",bus,50.118763,14.1254492
"Kladno,celnice",bus,50.12223,14.1238518
"Kladno,ČSAD",bus,50.1302948,14.104455
"Kladno,Dubská",bus,50.1570625,14.1300831
"Kladno,Dvorská",bus,50.1654167,14.1707478
"Kladno,Energie",bus,50.1474457,14.0699272
"Kladno,gymnasium",bus,50.14244,14.097764
"Kladno,Havlíčkovo náměstí",bus,50.1668243,14.1071453
"Kladno,Hnidousy",bus,50.17023,14.1125975
"Kladno,Husova",bus,50.1639748,14.1015511
"Kladno,kolonie",bus,50.1673546,14.1658745
"Kladno,Kožovská",bus,50.1167,14.1202955
"Kladno,Kübeck",bus,50.1622238,14.1141424
"Kladno,Lapák",bus,50.1284637,14.0902348
"Kladno,Meta",bus,50.134922,14.13735
"Kladno,Na Kopci",bus,50.16212,14.11365
"Kladno,Na Slovance",bus,50.1401367,14.1209059
"Kladno,nám.Svobody",bus,50.14528,14.0941505
"Kladno,OAZA",bus,50.13231,14.1384954
"Kladno,Okrsek 4",bus,50.13059,14.136919
"Kladno,pekárna",bus,50.1176338,14.1149521
"Kladno,Pod Zámkem",bus,50.15011,14.1064367
"Kladno,Poldi",bus,50.15031,14.1177654
"Kladno,Pražská křiž.",bus,50.1361237,14.1261806
"Kladno,Průmyslová",bus,50.15591,14.1164026
"Kladno,Rakovnická",bus,50.1363754,14.0594635
"Kladno,Ronovka",bus,50.17509,14.1077375
"Kladno,Rozdělov",bus,50.140728,14.065484
"Kladno,Růžové pole",bus,50.1283035,14.1287422
"Kladno,Seifertova",bus,50.1636124,14.0969057
"Kladno,Showa",bus,50.1186256,14.12931
"Kladno,Sítná",bus,50.1363335,14.1040764
"Kladno,Smečenská",bus,50.14232,14.0592
"Kladno,sokolovna",bus,50.16014,14.1392221
